LINE_ID,PRIVATE_LA,PGMN_WELL,CONS_AUTHO,COUNTY,TOWNSHIP,LOT,CONCESSION,AQUIFER_TY,AQUIFER_LI,STRATIGRAP,STRATI_DES,NO_RECORD,WELL_DEPTH,WEL_PIEZOM,SCREEN_HOL,lat,lon,ELVA_GROUN,SITE_ID
51,PRIVATE LAND,W0000083-1,RIDEAU VALLEY C.A.,LANARK COUNTY,BATHURST,LOT 18,CON 3,BEDROCK,QUARTZ SANDSTONE,3511815,N/A,N/A,45.43,15.88,OPEN HOLE: 6.71 - 45.43 M,0,0,146.11,83
52,PRIVATE LAND,W0000084-1,RIDEAU VALLEY C.A.,OTTAWA-CARLETON REGIONAL MUNICIPALITY,GOULBOURN,LOT 14,CON 3,BEDROCK,SILTY DOLOSTONE,1525896,N/A,N/A,7.84,15.88,OPEN HOLE: 4.28-7.84 M,0,0,108.01,84
53,NOT PRIVATE LAND,W0000087-1,RIDEAU VALLEY C.A.,OTTAWA-CARLETON REGIONAL MUNICIPALITY,RIDEAU,LOT 37,CON 2,BEDROCK,BLACK SLATE,1515835,N/A,N/A,22.9,15.88,OPEN HOLE: 18.6 - 22.9 M,45.09798,-75.62451,86.84,87
54,NOT PRIVATE LAND,W0000088-1,RIDEAU VALLEY C.A.,LEEDS AND GRENVILLE UNITED COUNTIES,BASTARD AND SOUTH BURGESS,LOT 18,CON 2,BEDROCK,SANDSTONE,3600203,N/A,N/A,7.62,15.88,OPEN HOLE: 3.35 - 7.62M,44.70138,-76.184116,123.88,88
55,NOT PRIVATE LAND,W0000115-3,KAWARTHA REGION C.A.,VICTORIA COUNTY,MARIPOSA,LOT 16,CON 14,BEDROCK,LIMESTONE,N/A,N/A,6417173 /6402187/6414779/6402186,15,5.08,N/A-  TO BE DETERMINED,44.39775,-78.90858,279.05,115
56,NOT PRIVATE LAND,W0000297-1,HAMILTON REGION C.A.,HAMILTON CITY,BEVERLY,LOT 28,CON 8,OVERBURDEN,"SANDY SILT, CLAYEY SILT",6813991,N/A,N/A,6,5.08,SCREEN: 4.6M-6.0M,43.36596,-80.108205,268.072,297
57,NOT PRIVATE LAND,W0000361-2,NIAGARA PENINSULA C.A.,NIAGARA REGIONAL MUNICIPALITY,PELHAM,LOT 10,CON 6,OVERBURDEN,SILTY SAND,N/A,SILTY SAND - 15.4M,N/A,15,5.08,SCREEN: 13.7M-15.0M,43.05609,-79.330615,216.25,361
58,PRIVATE LAND,W0000091-1,RAISIN REGION C.A.,"STORMONT, DUNDAS AND GLENGARRY UNITED COUNTIES",CHARLOTTENBURGH,LOT 10,CON 1,BEDROCK,LIMESTONE,2302064,N/A,N/A,35,15.88,OPEN HOLE: 18.9 - 35 M,0,0,54.13,91
59,NOT PRIVATE LAND,W0000096-1,SOUTH NATION CONSERVATION,LEEDS AND GRENVILLE UNITED COUNTIES,AUGUSTA,LOT 14,CON 4,BEDROCK,LIMESTONE /SANDSTONE,2403282,N/A,N/A,38.1,15.88,OPEN HOLE: 3.3 - 38.1M,44.7329,-75.597431,100.05,96
60,NOT PRIVATE LAND,W0000127-1,QUINTE CONSERVATION,HASTINGS COUNTY,HUNGERFORD,LOT 4,CON 2,BEDROCK,LIMESTONE,2900519,N/A,N/A,18.3,15.88,OPEN HOLE: 5.2-18.05M,44.37321,-77.310447,130.64,127
61,NOT PRIVATE LAND,W0000129-1,QUINTE CONSERVATION,HASTINGS COUNTY,THURLOW,LOT 23,CON 6,BEDROCK,INTERBEDDED LIMESTONE AND SHALE,N/A,N/A,2911715/2904367,58.59,16.21,OPEN HOLE: 52.9-58.59M,44.27725,-77.339801,118.58,129
62,NOT PRIVATE LAND,W0000373-1,KETTLE CREEK C.A.,ELGIN COUNTY,YARMOUTH,LOT 5,RANGE 1 EDGWARE ROAD NORTH SIDE,OVERBURDEN,SAND,2003037,N/A,N/A,50.29,20.96,SCREEN: 48.2M-50.0M,42.80419,-81.176551,231.99,373
63,NOT PRIVATE LAND,W0000196-1,OTONABEE REGION C.A.,PETERBOROUGH COUNTY,DUMMER,LOT 17,CON 2,BEDROCK,GREY LIMESTONE,5101076,N/A,N/A,15.3,15.88,OPEN HOLE: 6.7 - 15.3M,44.45763,-78.13002,233.83,196
64,NOT PRIVATE LAND,W0000078-1,GREY SAUBLE C.A.,BRUCE COUNTY,AMABEL,LOT 7,CON A,BEDROCK,DOLOSTONE,N/A,OVERBURDEN - 10.67M; GUELPH DOLOSTONE - 36.88M; ERAMOSA DOLOSTONE - 52.86M,N/A,52.73,10.8,OPEN HOLE: 17.25M-52.86 M,44.54858,-81.159193,223.71,78
65,NOT PRIVATE LAND,W0000157-2,RIDEAU VALLEY C.A.,OTTAWA-CARLETON REGIONAL MUNICIPALITY,RIDEAU,LOT 3,CON 1,BEDROCK,LIMESTONE WITH SHALE,1532865,N/A,N/A,8.74,5.08,OPEN HOLE: 6.6-9.45M,45.05505,-75.681498,88.6,157
66,PRIVATE LAND,W0000228-1,CROWE VALLEY C.A.,HASTINGS COUNTY,FARADAY,LOT 23,CON 8,BEDROCK,WHITE GRANITE,N/A,N/A,2912632,32,15.88,OPEN HOLE : 6.7 - 32 TO BE CONFIRMED,0,0,361.39,228
67,NOT PRIVATE LAND,W0000305-1,SAUGEEN VALLEY C.A.,GREY COUNTY,OSPREY,LOT 31,CON 2,OVERBURDEN,"SAND, GRAVEL",2515621,N/A,N/A,8.23,5.08,SCREEN: 3.96M-6.1M,44.26893,-80.361806,531.45,305
68,NOT PRIVATE LAND,W0000386-1,KAWARTHA REGION C.A.,DURHAM REGIONAL MUNICIPALITY,SCUGOG,LOT 6,CON 3,OVERBURDEN,FINE SAND,1916806,N/A,N/A,31.4,7.62,SCREEN: 9.45 - 12.35M,44.05455,-79.02587,311.11,386
69,NOT PRIVATE LAND,W0000387-1,KAWARTHA REGION C.A.,DURHAM REGIONAL MUNICIPALITY,SCUGOG,LOT 1,CON 2,OVERBURDEN,GREY SAND AND CLAY,1916805,N/A,N/A,35.4,7.62,SCREEN: 31.1 - 34.2M,44.05417,-78.87148,308.41,387
70,NOT PRIVATE LAND,W0000017-2,TORONTO AND REGION C.A.,TORONTO CITY,YORK,LOT 16,CON 1,OVERBURDEN,"SAND, GRAVEL",6905098,N/A,N/A,45.72,39.37,SCREEN: 39.9M-44.5M,43.75733,-79.430708,152.87,17
71,PRIVATE LAND,W0000018-1,CREDIT VALLEY CONSERVATION,DUFFERIN COUNTY,GARAFRAXA,LOT 1,CON B,BEDROCK,LIMESTONE,1704087,N/A,N/A,36.58,20,OPEN HOLE: 23.16M-36.58M,0,0,450.94,18
72,NOT PRIVATE LAND,W0000007-2,CONSERVATION HALTON,HALTON REGIONAL MUNICIPALITY,ESQUESING,LOT 11,CON 3,OVERBURDEN,SAND,2803355,N/A,N/A,14.33,2.54,SCREEN: 13.41M-14.33M,43.56572,-79.942244,245.537,7
73,NOT PRIVATE LAND,W0000008-1,CONSERVATION HALTON,HAMILTON CITY,EAST FLAMBOROUGH,LOT 2,CON 14,BEDROCK,LIMESTONE,6813466,N/A,N/A,6.61,14.4,OPEN HOLE:,43.46354,-80.037001,299.985,8
74,PRIVATE LAND,W0000227-1,CROWE VALLEY C.A.,HASTINGS COUNTY,WOLLASTON,LOT 19,CON 1,BEDROCK,SANDSTONE /LIMESTONE -MARBLE,N/A,N/A,2918232,100,15.88,OPEN HOLE: 31.5 - 100 TO BE CONFIRMED,0,0,331.85,227
75,PRIVATE LAND,W0000219-1,UPPER THAMES RIVER C.A.,PERTH COUNTY,LOGAN,LOT 2,CON 7,BEDROCK,LIMESTONE,5005363,N/A,N/A,33.53,15.88,OPEN HOLE: 22.9M-32.0M,0,0,357.72,219
76,NOT PRIVATE LAND,W0000401-1,MISSISSIPPI VALLEY C.A.,OTTAWA-CARLETON REGIONAL MUNICIPALITY,WEST CARLETON,LOT 17,CON 5,OVERBURDEN,GREY SAND,1534288,N/A,N/A,13.89,15.88,SCREEN: 12.8 - 14.0M,45.49896,-76.0921,65.67,401
77,NOT PRIVATE LAND,W0000278-1,CATARAQUI REGION C.A.,LEEDS AND GRENVILLE UNITED COUNTIES,BASTARD AND SOUTH BURGESS,LOT 10,CON 5,BEDROCK,"BLACK, GREY AND BROWN SANDSTONE",3615797,N/A,N/A,28.31,15.88,OPEN HOLE: 6.1 - 28.31M,44.69366,-76.099134,147.89,278
78,NOT PRIVATE LAND,W0000011-1,TORONTO AND REGION C.A.,DURHAM REGIONAL MUNICIPALITY,PICKERING,LOT 12,CON 7,OVERBURDEN,SAND,4605546,N/A,N/A,47.85,4.78,SCREEN: 46.94M-47.85M,43.96002,-79.083897,179.71,11
79,PRIVATE LAND,W0000049-1,CENTRAL LAKE ONTARIO C.A.,DURHAM REGIONAL MUNICIPALITY,WHITBY,LOT 13,CON 9,OVERBURDEN,SAND,1909981,N/A,N/A,15,15.24,SCREEN: 13.1 - 15.5 M,0,0,256.48,49
80,NOT PRIVATE LAND,W0000053-1,UPPER THAMES RIVER C.A.,OXFORD COUNTY,DORCHESTER,LOT 21,CON 1,BEDROCK,LIMESTONE,4701959,N/A,N/A,76.81,15.24,OPEN HOLE: 27.7M-76.8M,43.05598,-81.004605,290.19,53
81,NOT PRIVATE LAND,W0000279-1,CATARAQUI REGION C.A.,LEEDS AND GRENVILLE UNITED COUNTIES,BROCKVILLE,LOT 13,CON 3,BEDROCK,BLACK AND GREY SANDSTONE,3615798,N/A,N/A,18.6,15.88,OPEN HOLE: 6.1 M - 18.6M,44.61661,-75.721296,109.11,279
82,NOT PRIVATE LAND,W0000400-2,MISSISSIPPI VALLEY C.A.,OTTAWA-CARLETON REGIONAL MUNICIPALITY,WEST CARLETON,LOT 1,CON 3,OVERBURDEN,SAND,1534287,N/A,N/A,16.8,15.88,SCREEN: 4.5 - 5.12 M,45.4207,-76.02409,62.67,400
83,NOT PRIVATE LAND,W0000276-2,MAITLAND VALLEY C.A.,WELLINGTON COUNTY,ARTHUR,LOT 13,WEST SIDE OWEN SOUND ROAD,OVERBURDEN,"SAND, GRAVEL",N/A,"SAND, GRAVEL - 5.18M",N/A,5.18,5.08,SCREEN: 3.96M-5.18M,43.92209,-80.679057,439.58,276
84,NOT PRIVATE LAND,W0000028-2,CREDIT VALLEY CONSERVATION,HALTON REGIONAL MUNICIPALITY,ESQUESING,LOT 20,CON 7,OVERBURDEN,"GRAVEL, SAND",2808070,N/A,N/A,6.71,3.81,SCREEN: 5.2M-6.7M,43.64408,-79.95276,279.44,28
85,NOT PRIVATE LAND,W0000315-1,MAITLAND VALLEY C.A.,HURON COUNTY,ASHFIELD,LOT 42,CON FRONT NORTH OF TOWN PLOT,BEDROCK,LIMESTONE,3004744,N/A,N/A,62.48,15.88,OPEN HOLE: 56.1M-62.5M,44.03778,-81.737676,188.54,315
86,NOT PRIVATE LAND,W0000184-1,LOWER THAMES VALLEY C.A.,MIDDLESEX COUNTY,CARADOC,LOT 16,RANGE NORTH OF ROAD,OVERBURDEN,SAND,4106020,N/A,N/A,6.71,167.64,CONCRETE TILE: 6.71M - 6.71M,42.88455,-81.480304,240.99,184
87,PRIVATE LAND,W0000185-1,LOWER THAMES VALLEY C.A.,ELGIN COUNTY,DUNWICH,LOT 22,CON 10,OVERBURDEN,SAND,2003781,N/A,N/A,42.98,12.7,SCREEN: 39.6M-42.1M,0,0,212.05,185
88,PRIVATE LAND,W0000092-1,RAISIN REGION C.A.,"STORMONT, DUNDAS AND GLENGARRY UNITED COUNTIES",LOCHIEL,LOT 13,CON 7,OVERBURDEN,SAND AND GRAVEL,2300848,N/A,N/A,17.9,12.95,OPEN AT END OF CASING,0,0,77.98,92
89,PRIVATE LAND,W0000093-1,RAISIN REGION C.A.,"STORMONT, DUNDAS AND GLENGARRY UNITED COUNTIES",ROXBOROUGH,LOT 12,CON 2,BEDROCK,LIMESTONE,5802108,N/A,N/A,25.9,15.88,OPEN HOLE: 13.1 - 25.9 M,0,0,107.78,93
90,NOT PRIVATE LAND,W0000259-2,GANARASKA REGION C.A.,NORTHUMBERLAND COUNTY,HOPE,LOT 3,CON 2,OVERBURDEN,"CLAY, SAND, SILT AND GRAVEL",4513209,N/A,N/A,10.69,5.08,SCREEN: 7.21 -  10.69M,43.97337,-78.28885,101.55,259
91,NOT PRIVATE LAND,W0000347-2,GRAND RIVER C.A.,DUFFERIN COUNTY,MELANCTHON,LOT 260,CON 2,OVERBURDEN,"SANDY CLAY, SAND",1706040,N/A,N/A,6.4,6.05,SCREEN: 3.05M-6.1M,44.15295,-80.311622,508.216,347
92,NOT PRIVATE LAND,W0000246-1,SAUGEEN VALLEY C.A.,GREY COUNTY,BENTINCK,LOT 40,CON 3,BEDROCK,ROCK (DESCRIPTION BY DRILLER),2502792,N/A,N/A,36.58,10.8,OPEN HOLE: 32.2M-36.6M,44.14809,-80.928202,294.64,246
93,NOT PRIVATE LAND,W0000285-1,AUSABLE BAYFIELD C.A.,MIDDLESEX COUNTY,WILLIAMS,LOT 1,CON 20,OVERBURDEN,"SILT, SAND, GRAVEL",4115201,N/A,N/A,11.28,5.08,SCREEN: 8.2M-11.3M,43.15967,-81.658179,214.1,285
94,NOT PRIVATE LAND,W0000286-1,AUSABLE BAYFIELD C.A.,LAMBTON COUNTY,BOSANQUET,LOT 3,ABUTTING ON SOUTHERN BOUNDARY,OVERBURDEN,"SILTY SAND, GRAVEL",3408501,N/A,N/A,5.03,5.08,SCREEN: 3.5M-5.0M,43.08438,-81.821579,216.2,286
95,NOT PRIVATE LAND,W0000001-1,CONSERVATION HALTON,HALTON REGIONAL MUNICIPALITY,NELSON,LOT 10,CON 2,BEDROCK,DOLOSTONE,2809356,N/A,N/A,6.3,5.08,SCREEN: 3.2M-6.1M,43.42459,-79.94452,261.274,1
96,NOT PRIVATE LAND,W0000002-1,HAMILTON REGION C.A.,HAMILTON CITY,WEST FLAMBOROUGH,LOT 9,CON 2,BEDROCK,DOLOSTONE,6813533,N/A,N/A,23.2,15.88,OPEN HOLE: 10.7M-23.2M,43.28354,-79.990803,242.831,2
97,NOT PRIVATE LAND,W0000003-1,CONSERVATION HALTON,HALTON REGIONAL MUNICIPALITY,NASSAGAWEYA,LOT 24,CON 1,OVERBURDEN,"SAND, GRAVEL",2801739,N/A,N/A,15.54,15.88,SLOTTED PIPE: 7.6M-14.6M,43.53684,-80.107003,346.766,3
98,NOT PRIVATE LAND,W0000262-1,CENTRAL LAKE ONTARIO C.A.,DURHAM REGIONAL MUNICIPALITY,OSHAWA,LOT 10,CON 7,OVERBURDEN,GREY-BEIGE FINE SAND,1916295,N/A,N/A,28.63,6.05,SCREEN: 17.68 - 18.9M,43.98657,-78.902518,207.99,262
99,NOT PRIVATE LAND,W0000004-1,CONSERVATION HALTON,HALTON REGIONAL MUNICIPALITY,ESQUESING,LOT 3,CON 5,OVERBURDEN,"SILT, SAND, GRAVEL",2809357,N/A,N/A,72.08,5.08,SCREEN: 67.5M-72.2M,43.55075,-79.889273,213.972,4
100,NOT PRIVATE LAND,W0000276-3,MAITLAND VALLEY C.A.,WELLINGTON COUNTY,ARTHUR,LOT 13,WEST SIDE OWEN SOUND ROAD,BEDROCK,SHALE,N/A,"SAND, GRAVEL - 5.85M; STONY SILTY SAND TILL - 7.45M; SHALE - 9.15M",N/A,8.84,5.08,SCREEN: 8.2M-8.8M,43.92207,-80.679007,439.65,276
101,PRIVATE LAND,W0000277-1,NORTH BAY-MATTAWA C.A.,NIPISSING DISTRICT,WIDDIFIELD,LOT 20,CON 2,OVERBURDEN,LIGHT GREY COARSE SAND WITH GRAVEL,N/A,"TW-14 - AGRA EARTH & ENVIRONMENTAL GROUP, SEPT 1992: SAND - 10.05M","4305324, 4301275, 4301276",10,5.08,SCREEN: 7M -10M,0,0,350.86,277
102,NOT PRIVATE LAND,W0000025-1,LAKE SIMCOE REGION C.A.,YORK REGIONAL MUNICIPALITY,EAST GWILLIMBURY,LOT 25,CON 3,OVERBURDEN,"SILT, SAND, GRAVEL",6925785,N/A,N/A,10.7,5.5,SCREEN: 6.1M-9.12M,44.153,-79.454016,241.31,25
103,NOT PRIVATE LAND,W0000159-2,QUINTE CONSERVATION,PRINCE EDWARD COUNTY,HALLOWELL,LOT 21,CON 1,INTERFACE,CLAY AND SHALEY LIMESTONE,5307083,N/A,N/A,5.5,15.88,OPEN AT END OF CASING,44.00511,-77.124093,109.4,159
104,PRIVATE LAND,W0000234-1,AUSABLE BAYFIELD C.A.,LAMBTON COUNTY,BOSANQUET,LOT 20,LAKE ROAD EAST,OVERBURDEN,SAND,3407685,N/A,N/A,9.75,13.97,SCREEN: 4.57M-9.8M,0,0,182.99,234
105,PRIVATE LAND,W0000175-3,RIDEAU VALLEY C.A.,OTTAWA-CARLETON REGIONAL MUNICIPALITY,GOULBOURN,LOT 11,CON 9,BEDROCK,GREY LIMESTONE,1530346,N/A,N/A,26,3.18,OPEN HOLE: 17.5 - 26 M,0,0,139.88,175
106,NOT PRIVATE LAND,W0000263-1,CENTRAL LAKE ONTARIO C.A.,DURHAM REGIONAL MUNICIPALITY,WHITBY,LOT 32,CON 5,OVERBURDEN,"BEIGE, FINE TO MEDIUM SAND",1916117,N/A,N/A,7.32,6.35,SCREEN: 6.50 - 7.32M,43.93483,-78.997083,142.67,263
107,NOT PRIVATE LAND,W0000265-2,CENTRAL LAKE ONTARIO C.A.,DURHAM REGIONAL MUNICIPALITY,CLARINGTON,LOT 13,CON 9,OVERBURDEN,FINE TO MEDIUM SAND,1916293,N/A,N/A,141.79,6.35,SCREEN: 122.2 - 125.3M,44.05286,-78.758951,292.08,265
108,NOT PRIVATE LAND,W0000282-3,SOUTH NATION CONSERVATION,OTTAWA-CARLETON REGIONAL MUNICIPALITY,CUMBERLAND,LOT 13,FIRST CON FROM THE OTTAWA RIVER,BEDROCK,DOLOMITE,N/A,"BH: 1 GOLDER ASSOCIATES, JULY 2001:SAND AND GRAVEL TO 1.7M; DOLOMITE TO 44M",N/A,44,15,SCREEN: 42 M - 44 M,45.51466,-75.401669,72.62,282
109,NOT PRIVATE LAND,W0000283-1,LAKE SIMCOE REGION C.A.,YORK REGIONAL MUNICIPALITY,WHITCHURCH,LOT 79,CON 1,OVERBURDEN,CLAYEY SILT,6927044,N/A,N/A,27.43,5.08,SCREEN: 24.38M-27.43M,43.99448,-79.457186,270.78,283
110,NOT PRIVATE LAND,W0000287-1,NIAGARA PENINSULA C.A.,HALDIMAND-NORFOLK REGIONAL MUNICIPALITY,CAYUGA,LOT 5,CON 1,BEDROCK,SHALE,N/A,CLAYEY SILT - 2.1M; SILTY CLAY - 5.9M; CLAY - 13.7M; SILTY SAND - 16.5M; SHALE - 19.6M; DOLOSTONE - 20.0M,N/A,19.7,5.08,SCREEN: 18.4M-19.7M,42.99769,-79.737486,189.97,287
111,NOT PRIVATE LAND,W0000298-3,LAKE SIMCOE REGION C.A.,YORK REGIONAL MUNICIPALITY,GEORGINA,LOT 2,CON 3,OVERBURDEN,"GRAVEL, TILL, COBBLES",6927046,N/A,N/A,30.48,7.62,SCREEN: 27.43M-30.48M,44.26262,-79.336001,228.88,298
112,NOT PRIVATE LAND,W0000298-4,LAKE SIMCOE REGION C.A.,YORK REGIONAL MUNICIPALITY,GEORGINA,LOT 2,CON 3,BEDROCK,SHALE,6927045,N/A,N/A,32,5.08,SCREEN: 28.96M-32.0M,44.26262,-79.336001,228.88,298
113,PRIVATE LAND,W0000356-2,NIAGARA PENINSULA C.A.,NIAGARA REGIONAL MUNICIPALITY,STAMFORD,LOT 17,N/A,OVERBURDEN,"SAND, GRAVEL",6603734,N/A,N/A,31.5,4.78,N/A-  TO BE DETERMINED,0,0,187.34,356
114,NOT PRIVATE LAND,W0000334-1,CATARAQUI REGION C.A.,LEEDS AND GRENVILLE UNITED COUNTIES,REAR OF LEEDS AND LANSDOWNE,LOT 20,CON 10,BEDROCK,RED AND BLACK GRANITE,3615810,N/A,N/A,30.8,15.88,OPEN HOLE: 6.1 - 30.8M,44.53234,-76.154959,119.81,334
115,NOT PRIVATE LAND,W0000463-1,LAKEHEAD REGION C.A.,THUNDER BAY DISTRICT,"THUNDER BAY, UNORGANIZED",LOT 7,CON 3,OVERBURDEN,BLACK GRAVEL,6107457,N/A,N/A,23.8,15.88,OPEN HOLE AT END OF CASING 21.9 - 23.8M,48.63157,-88.764926,329.14,463
116,NOT PRIVATE LAND,W0000321-1,AUSABLE BAYFIELD C.A.,HURON COUNTY,HAY,LOT 21,CON 8,OVERBURDEN,SANDY SILT,3007468,N/A,N/A,11.28,5.08,SCREEN: 8.2M-11.3M,43.42532,-81.593719,249.34,321
117,NOT PRIVATE LAND,W0000328-1,TORONTO AND REGION C.A.,PEEL REGIONAL MUNICIPALITY,CALEDON,LOT 23,CON 6,BEDROCK,LIMESTONE,N/A,"SAND, GRAVEL - 2.4M; GRAVEL - 8.8M; CLAY - 11.0M; SHALE - 13.7M; LIMESTONE - 29.1M",N/A,29.1,20.96,OPEN HOLE: 11.0M-29.1M,43.94566,-79.974983,423.11,328
118,NOT PRIVATE LAND,W0000041-1,CENTRAL LAKE ONTARIO C.A.,DURHAM REGIONAL MUNICIPALITY,DARLINGTON,LOT 18,CON 5,INTERFACE,SAND-GRAVEL /LIMESTONE INTERFACE,1904189,N/A,N/A,46.6,15.24,OPEN AT END OF CASING,43.96447,-78.745164,165.63,41
119,NOT PRIVATE LAND,W0000325-1,TORONTO AND REGION C.A.,TORONTO CITY,YORK,LOT 38,CON 1,OVERBURDEN,SILTY DIAMICT,N/A,"FILL - 3.5M; SILT - 8.6M; SILTY TILL - 10.4M; SAND - 10.5M; SILTY DIAMICT - 12.5M; LIMESTONE, SHALE - 14.0M",N/A,14,6.05,SCREEN: 9.5M-12.5M,43.64953,-79.470494,78.32,325
120,NOT PRIVATE LAND,W0000326-2,TORONTO AND REGION C.A.,DURHAM REGIONAL MUNICIPALITY,PICKERING,LOT 24,CON 3,OVERBURDEN,SANDY SILT,1912072,N/A,N/A,3.05,5.08,SCREEN: 1.3M-2.9M,43.87708,-79.11851,174.77,326
121,NOT PRIVATE LAND,W0000361-3,NIAGARA PENINSULA C.A.,NIAGARA REGIONAL MUNICIPALITY,PELHAM,LOT 10,CON 6,OVERBURDEN,"SILTY SAND, GRAVEL",N/A,"SILTY SAND - 15.4M; SANDY SILT - 15.5M; CLAYEY SILT - 15.6M; SILTY SAND - 16.2M; SILT CLAY TILL - 19.6M; SILTY SAND - 20.0M; SILTY CLAY TILL - 21.1M; SANDY SILT - 22.1M; SILTY CLAY TILL - 27.5M; SILTY SAND, GRAVEL - 31.7M",N/A,31.4,5.08,SCREEN: 30.1M-31.4M,43.05608,-79.330615,216.25,361
122,NOT PRIVATE LAND,W0000464-1,LAKEHEAD REGION C.A.,THUNDER BAY DISTRICT,"THUNDER BAY, UNORGANIZED",LOT 11,CON 5,BEDROCK,GREY GRANITE,6107456,N/A,N/A,65.5,15.88,OPEN HOLE: 61 - 65.5M,48.58765,-89.29566,447.76,464
123,NOT PRIVATE LAND,W0000326-3,TORONTO AND REGION C.A.,DURHAM REGIONAL MUNICIPALITY,PICKERING,LOT 24,CON 3,OVERBURDEN,"SILT, SAND",1912072,N/A,N/A,39.75,5.08,SCREEN: 38.0M-39.5M,43.87708,-79.11851,174.77,326
124,PRIVATE LAND,W0000327-3,TORONTO AND REGION C.A.,PEEL REGIONAL MUNICIPALITY,ALBION,LOT 10,CON 5,OVERBURDEN,"SAND, SILT",4907845,N/A,N/A,39.83,3.18,N/A-  TO BE DETERMINED,0,0,261.77,327
125,NOT PRIVATE LAND,W0000327-4,TORONTO AND REGION C.A.,PEEL REGIONAL MUNICIPALITY,ALBION,LOT 10,CON 5,OVERBURDEN,"SAND, SILT",4907845,N/A,N/A,96.62,4.78,SCREEN: 79.9M-87.1M,43.87603,-79.75726,261.77,327
126,NOT PRIVATE LAND,W0000117-2,KAWARTHA REGION C.A.,VICTORIA COUNTY,MANVERS,LOT 11,CON 7,OVERBURDEN,CLAY WITH LAYERS OF SILT AND SAND,6414902,N/A,N/A,55,5.08,SCREEN: 52-55M,44.15881,-78.65947,329.88,117
127,NOT PRIVATE LAND,W0000296-1,HAMILTON REGION C.A.,HAMILTON CITY,BEVERLY,LOT 28,CON 8,BEDROCK,DOLOSTONE,6813991,N/A,N/A,11.8,5.08,SCREEN: 10.48M-12.0M,43.36596,-80.108205,268.012,296
128,NOT PRIVATE LAND,W0000322-1,AUSABLE BAYFIELD C.A.,MIDDLESEX COUNTY,LONDON,LOT 32,CON 13,OVERBURDEN,"GRAVEL, SAND",4115200,N/A,N/A,8.84,5.08,SCREEN: 5.2M-8.2M,43.09045,-81.436645,267.83,322
129,PRIVATE LAND,W0000076-1,UPPER THAMES RIVER C.A.,PERTH COUNTY,NISSOURI,LOT 36,CON 11,BEDROCK,LIMESTONE,N/A,N/A,4708251,25.8,9.52,OPEN HOLE,0,0,339.68,76
130,PRIVATE LAND,W0000216-2,RAISIN REGION C.A.,"STORMONT, DUNDAS AND GLENGARRY UNITED COUNTIES",LANCASTER,LOT 18,CON 7,OVERBURDEN,TILL,2305289,N/A,N/A,5.8,5.08,SCREEN: 3.0 - 4.6 M,0,0,62.95,216
131,NOT PRIVATE LAND,W0000217-2,UPPER THAMES RIVER C.A.,MIDDLESEX COUNTY,LONDON,LOT 25,CON 1,OVERBURDEN,SAND,N/A,CLAYEY SILT - 3.2M; SAND - 4.11M; CLAYEY SILT - 5.03M; SAND - 11.58M,N/A,11.58,5.08,SCREEN: 9.75M-11.28M,42.97309,-81.326928,260.88,217
132,NOT PRIVATE LAND,W0000213-1,LOWER TRENT REGION C.A.,HASTINGS COUNTY,SIDNEY,LOT 19,CON 7,OVERBURDEN,GRAVEL,2919771,N/A,N/A,45,15.88,OPEN HOLE AT END OF CASING,44.2484,-77.54007,198.6,213
133,NOT PRIVATE LAND,W0000214-1,LOWER TRENT REGION C.A.,NORTHUMBERLAND COUNTY,CRAMAHE,LOT 9,CON 7,OVERBURDEN,GRAVEL,4513331,N/A,N/A,11.16,15.88,OPEN HOLE AT END OF CASINGSCREEN: 8.12~11.16M,44.12793,-77.81748,141.27,214
134,NOT PRIVATE LAND,W0000215-1,LONG POINT REGION C.A.,OXFORD COUNTY,NORWICH,LOT 27,CON 9,BEDROCK,LIMESTONE,4702076,N/A,N/A,37.34,16.51,OPEN HOLE: 33.6M-37.5M,42.89964,-80.701057,249.2,215
135,PRIVATE LAND,W0000029-1,CREDIT VALLEY CONSERVATION,WELLINGTON COUNTY,ERIN,LOT 12,CON 10,OVERBURDEN,SILTY SAND,6713770,N/A,N/A,12.5,5.08,SCREEN: 9.5M-12.5M,0,0,400,29
136,NOT PRIVATE LAND,W0000075-1,TORONTO AND REGION C.A.,YORK REGIONAL MUNICIPALITY,VAUGHAN,LOT 19,CON 7,OVERBURDEN,"GRAVEL, SAND",6921815,N/A,N/A,35.97,5.08,SCREEN: 33.8M-35.4M,43.83298,-79.591562,206,75
137,PRIVATE LAND,W0000414-1,SAULT STE. MARIE REGION C.A.,ALGOMA DISTRICT,KORAH,SEC 31,N/A,OVERBURDEN,"SAND,  GRAVEL AND STONE",1107212,N/A,N/A,38.1,15.88,SCREEN: 36.9 - 38.1M,0,0,199.99,414
138,PRIVATE LAND,W0000146-1,QUINTE CONSERVATION,PRINCE EDWARD COUNTY,AMELIASBURGH,LOT 32,CON 2,BEDROCK,LIMESTONE,5303804,N/A,N/A,13.7,15.88,OPEN HOLE: 3-13.7M,0,0,75.27,146
139,NOT PRIVATE LAND,W0000205-2,ESSEX REGION C.A.,ESSEX COUNTY,MERSEA,LOT 5,CON 9,OVERBURDEN,SAND,2105657,N/A,N/A,28.96,15.88,OPEN HOLE: 25.60M-28.96M,42.12283,-82.60287,194,205
140,PRIVATE LAND,W0000042-1,CENTRAL LAKE ONTARIO C.A.,DURHAM REGIONAL MUNICIPALITY,DARLINGTON,LOT 4,CON 8,OVERBURDEN,SAND AND GRAVEL,1901748,N/A,N/A,50,15.24,OPEN AT END OF CASING,0,0,340.65,42
141,NOT PRIVATE LAND,W0000043-3,CENTRAL LAKE ONTARIO C.A.,DURHAM REGIONAL MUNICIPALITY,DARLINGTON,LOT 12,CON 2,OVERBURDEN,TILL-LIMESTONE INTERFACE,1900044,N/A,N/A,36.6,3.81,SCREEN: 34.7 - 35.7 M,43.92296,-78.693657,125,43
142,NOT PRIVATE LAND,W0000097-2,SOUTH NATION CONSERVATION,OTTAWA-CARLETON REGIONAL MUNICIPALITY,OSGOODE,LOT 22,CON 8,BEDROCK,DOLOMITE,N/A,"MW01-1 GOLDER ASSOCIATES, MAY 2001",N/A,6.4,3.18,SCREEN 6 - 6.82 M,45.23144,-75.4699,86.21,97
143,NOT PRIVATE LAND,W0000177-1,SAUGEEN VALLEY C.A.,GREY COUNTY,SULLIVAN,LOT 22,CON 3,BEDROCK,DOLOSTONE,2504262,N/A,N/A,10.06,17.14,OPEN HOLE: 10.06M-10.06M,44.35649,-80.910807,309.15,177
144,NOT PRIVATE LAND,W0000139-1,GANARASKA REGION C.A.,DURHAM REGIONAL MUNICIPALITY,CLARKE,LOT 10,CON 28,BEDROCK,"LIMESTONE, DOLOSTONE, SHALE,",N/A,N/A,N/A,215.8,3.81,N/A-  TO BE DETERMINED,44.0666,-78.65441,367.47,139
145,NOT PRIVATE LAND,W0000400-3,MISSISSIPPI VALLEY C.A.,OTTAWA-CARLETON REGIONAL MUNICIPALITY,WEST CARLETON,LOT 1,CON 3,BEDROCK,GREY LIMESTONE AND GREY WHITE SANDSTONE,1534292,N/A,N/A,44.8,15.88,OPEN HOLE: 20.1 - 44.8M,45.42067,-76.02408,62.67,400
146,NOT PRIVATE LAND,W0000021-1,TORONTO AND REGION C.A.,PEEL REGIONAL MUNICIPALITY,CHINGUACOUSY,LOT 14,CON 2,OVERBURDEN,"SAND, GRAVEL",4901205,N/A,N/A,42.06,4.78,SLOTTED PIPE: 21.03M-27.13M,43.74383,-79.794029,250.85,21
147,NOT PRIVATE LAND,W0000439-1,SEVERN SOUND ENVIRONMENTAL ASSOCIATION,SIMCOE COUNTY,MEDONTE,LOT 6,CON 8,OVERBURDEN,SAND AND GRAVEL,N/A,"BH-19 USED FROM OGS, 2004: SILTY SAND 6.09; SANDY GRAVEL WITH SOME SILT AND SAND 44.2; SANDY GRAVEL 50.6; CLAY, SAND AND GRAVEL 59.4",N/A,58.57,6.35,SCREEN: 54.04~59.4M,44.55587,-79.586662,326.06,439
148,NOT PRIVATE LAND,W0000452-1,KETTLE CREEK C.A.,ELGIN COUNTY,YARMOUTH,LOT 3,CON 4,OVERBURDEN,"SAND, GRAVEL",2003226,N/A,N/A,60.96,15.75,OPEN HOLE: 60.35-60.96M,42.70875,-81.196734,210.58,452
149,NOT PRIVATE LAND,W0000035-5,GRAND RIVER C.A.,WATERLOO REGIONAL MUNICIPALITY,DUMFRIES,LOT 24,CON 12,BEDROCK,LIMESTONE,6507680,N/A,N/A,57.3,4.76,SCREEN: 54.86M-56.39M,43.36557,-80.38877,316.97,35
150,PRIVATE LAND,W0000036-1,GRAND RIVER C.A.,WATERLOO REGIONAL MUNICIPALITY,WILMOT,LOT 1,CON 2,OVERBURDEN,"SAND, GRAVEL",6508878,N/A,N/A,91.44,4.76,SCREEN: 73.15M-76.2M,0,0,365.24,36
151,NOT PRIVATE LAND,W0000275-1,MAITLAND VALLEY C.A.,WELLINGTON COUNTY,MINTO,LOT 25,CON 7,BEDROCK,LIMESTONE,N/A,SILTY SAND TILL - 4.3M; SILT TILL - 13.0M; LIMESTONE - 18.6M,N/A,18.9,4.44,SCREEN: 15.4M-18.3M,43.89401,-80.882814,386.44,275
152,PRIVATE LAND,W0000151-1,QUINTE CONSERVATION,LENNOX AND ADDINGTON COUNTY,CAMDEN EAST,LOT 37,CON 7,BEDROCK,GRANITE TO BE DETERMINED,N/A,N/A,3702570 /3703351/3703385,23.66,15.88,N/A-  TO BE DETERMINED,0,0,149.98,151
153,NOT PRIVATE LAND,W0000033-1,HAMILTON REGION C.A.,HAMILTON CITY,BARTON,LOT 2,CON 8,BEDROCK,LIMESTONE,6809018,N/A,N/A,16.46,15.88,OPEN HOLE: 9.75M-16.46M,43.19329,-79.829861,189.943,33
154,NOT PRIVATE LAND,W0000067-1,GREY SAUBLE C.A.,GREY COUNTY,ARTEMESIA,LOT 26,CON 10,BEDROCK,LIMESTONE,2503909,N/A,N/A,35.36,12.7,OPEN HOLE: 6.1 - 35.4 M,44.31287,-80.524612,414.83,67
155,NOT PRIVATE LAND,W0000205-3,ESSEX REGION C.A.,ESSEX COUNTY,MERSEA,LOT 5,CON 9,BEDROCK,LIMESTONE,2105658,N/A,N/A,35.36,15.88,OPEN HOLE: 34.44M-35.36M,42.12283,-82.60287,194,205
156,NOT PRIVATE LAND,W0000206-1,OTONABEE REGION C.A.,PETERBOROUGH COUNTY,OTONABEE,LOT 20,CON 6,BEDROCK,GREY LIMESTONE,5108009,N/A,N/A,11.6,15.88,OPEN HOLE: 5.5 - 11.6 M,44.2852,-78.17195,197.97,206
157,PRIVATE LAND,W0000149-2,QUINTE CONSERVATION,PRINCE EDWARD COUNTY,MARMORA,LOT 9,CON 8,BEDROCK,"LIMESTONE,",N/A,N/A,N/A,10.27,5.08,N/A-  TO BE DETERMINED,0,0,193.96,149
158,NOT PRIVATE LAND,W0000056-1,UPPER THAMES RIVER C.A.,MIDDLESEX COUNTY,DELAWARE,LOT 1,CON D,OVERBURDEN,GRAVEL,4108583,N/A,N/A,31.09,5.08,SCREEN: 26.5M-31.1M,42.93335,-81.421464,214.39,56
159,NOT PRIVATE LAND,W0000233-1,AUSABLE BAYFIELD C.A.,HURON COUNTY,STANLEY,N/A,N/A,BEDROCK,ROCK (LIMESTONE),3003753,N/A,N/A,64.31,15.88,OPEN HOLE: 51.8M-64.3M,43.55822,-81.694606,207.72,233
160,NOT PRIVATE LAND,W0000346-1,MAITLAND VALLEY C.A.,BRUCE COUNTY,KINLOSS,LOT 16,CON 2,OVERBURDEN,"SAND, GRAVEL",1410377,N/A,N/A,17.07,5.08,SCREEN: 9.75M-15.85M,43.96823,-81.479824,296.49,346
161,NOT PRIVATE LAND,W0000333-1,CROWE VALLEY C.A.,HASTINGS COUNTY,TUDOR AND CASHEL,LOT 23,WEST OF HASTINGS ROAD,BEDROCK,GRAY GRANITE,2919840,N/A,N/A,68.6,15.88,OPEN HOLE: 6.1 - 68.6M,44.69355,-77.60746,285.24,333
162,NOT PRIVATE LAND,W0000323-2,NOTTAWASAGA VALLEY C.A.,SIMCOE COUNTY,WEST GWILLIMBURY,LOT 7,CON 11,OVERBURDEN,SANDY SILT,5737734,N/A,N/A,18.29,5.08,SCREEN: 15.24M-18.29M,44.16161,-79.64186,269.45,323
163,NOT PRIVATE LAND,W0000012-1,TORONTO AND REGION C.A.,DURHAM REGIONAL MUNICIPALITY,PICKERING,LOT 11,CON 7,OVERBURDEN,"CLAY, SILT, SAND",4605544,N/A,N/A,12.19,5,SCREEN: 11.28M-12.19M,43.95987,-79.083815,179.48,12
164,NOT PRIVATE LAND,W0000248-1,LOWER THAMES VALLEY C.A.,MIDDLESEX COUNTY,MOSA,LOT 9,CON 1,OVERBURDEN,GRAVEL,4106140,N/A,N/A,32.31,15.88,SCREEN: 29.6M-31.1M,42.7131,-81.748949,219.63,248
165,PRIVATE LAND,W0000040-1,CENTRAL LAKE ONTARIO C.A.,DURHAM REGIONAL MUNICIPALITY,DARLINGTON,LOT 32,CON 3,OVERBURDEN,TILL,N/A,N/A,1901103,9.75,91.44,N/A-  TO BE DETERMINED,0,0,130.88,40
166,NOT PRIVATE LAND,W0000022-1,GRAND RIVER C.A.,WATERLOO REGIONAL MUNICIPALITY,WILMOT,LOT 12,CON 2,OVERBURDEN,"SAND, CLAY TILL",6508850,N/A,N/A,25.09,4.78,SCREEN: 21.95M-24.99M,43.36467,-80.600912,361.95,22
167,PRIVATE LAND,W0000130-1,QUINTE CONSERVATION,HASTINGS COUNTY,HUNGERFORD,LOT 9,CON 9,BEDROCK,RED AND BLACK GRANITE,2907416,N/A,N/A,65,15.88,OPEN HOLE: 3.6~62.83M,0,0,161.85,130
168,PRIVATE LAND,W0000131-1,QUINTE CONSERVATION,LENNOX AND ADDINGTON COUNTY,KALADAR,LOT 20,CON 4,BEDROCK,GRANITE,3707680,N/A,N/A,52,15.88,OPEN HOLE: 6.7 - 52M,0,0,251.19,131
169,NOT PRIVATE LAND,W0000132-1,QUINTE CONSERVATION,HASTINGS COUNTY,SIDNEY,LOT 13,CON 5,INTERFACE,BROWN SAND AND GRAVEL /LIMESTONE,2909393,N/A,N/A,17.7,20.96,SCREEN 13.7 - 17.0 M,44.20952,-77.55373,122.58,132
170,NOT PRIVATE LAND,W0000165-3,CREDIT VALLEY CONSERVATION,PEEL REGIONAL MUNICIPALITY,CALEDON,LOT 1,CON 2,OVERBURDEN,"SAND, GRAVEL",4909397,N/A,N/A,174.04,6.03,SCREEN: 167.95M-174.0M,43.82231,-79.897763,281.72,165
171,NOT PRIVATE LAND,W0000166-1,CENTRAL LAKE ONTARIO C.A.,DURHAM REGIONAL MUNICIPALITY,CLARINGTON,LOT 21,CON 7,OVERBURDEN,SAND,1913007,N/A,N/A,47.2,15.88,SCREEN: 40.5- 41.15M,44.01102,-78.779615,218.78,166
172,NOT PRIVATE LAND,W0000167-1,CENTRAL LAKE ONTARIO C.A.,DURHAM REGIONAL MUNICIPALITY,CLARINGTON,LOT 21,CON 7,OVERBURDEN,SILTY TILL,1901733,N/A,N/A,11.6,16.21,SCREEN: 9.7 - 11.6 M,44.00261,-78.77575,196.69,167
173,NOT PRIVATE LAND,W0000311-1,SEVERN SOUND ENVIRONMENTAL ASSOCIATION,SIMCOE COUNTY,MIDLAND,LOT 105,CON 1,OVERBURDEN,TILL,N/A,N/A,N/A,100,5,N/A-  TO BE DETERMINED,44.73069,-79.913375,260.15,311
174,NOT PRIVATE LAND,W0000312-1,SEVERN SOUND ENVIRONMENTAL ASSOCIATION,SIMCOE COUNTY,TAY,LOT 112,MILITARY RESERVE,OVERBURDEN,"SAND AND GRAVEL,",5703913,N/A,N/A,33.63,11.91,SCREEN: 26 ~ 33.6 M,44.7727,-79.893529,194.77,312
175,NOT PRIVATE LAND,W0000313-1,SEVERN SOUND ENVIRONMENTAL ASSOCIATION,SIMCOE COUNTY,TAY,LOT 112,MILITARY RESERVE,OVERBURDEN,LIGHT YELLOW SAND,5709004,N/A,N/A,32.6,15.8,SCREEN: 30.9 - 32.6 M,44.77253,-79.893482,193.54,313
176,NOT PRIVATE LAND,W0000114-2,GANARASKA REGION C.A.,DURHAM REGIONAL MUNICIPALITY,CLARINGTON,LOT 22,CON 5,OVERBURDEN,SILTY TILL,1900956,N/A,N/A,8.5,3.81,SCREEN: 7-8 M,43.99734,-78.5924,236.74,114
177,PRIVATE LAND,W0000125-1,CONSERVATION HALTON,HALTON REGIONAL MUNICIPALITY,TRAFALGAR,LOT 8,CON 2,OVERBURDEN,SANDY SILT TILL,2809620,N/A,N/A,13.4,4.44,SCREEN: 11.9M-13.4M,0,0,197.601,125
178,PRIVATE LAND,W0000135-1,QUINTE CONSERVATION,LENNOX AND ADDINGTON COUNTY,RICHMOND,LOT 9,CON 3,OVERBURDEN,"SILT, CLAY, SAND",N/A,N/A,"MOE MONITORING WELLS: 3701876-877, 3701881-882, 3701870",13.32,16.88,N/A-  TO BE DETERMINED,0,0,119.17,135
179,PRIVATE LAND,W0000136-1,QUINTE CONSERVATION,PRINCE EDWARD COUNTY,HALLOWELL,LOT 1,CON 2,BEDROCK,GREY LIMESTONE,5301923,N/A,N/A,18.3,20.32,OPEN HOLE: 3-18.3M,0,0,95.66,136
180,NOT PRIVATE LAND,W0000156-3,RIDEAU VALLEY C.A.,OTTAWA-CARLETON REGIONAL MUNICIPALITY,NEPEAN,LOT 12,CON 5,BEDROCK,GREY LIMESTONE AND SHALE,1532866,N/A,N/A,49.75,5.08,SCREEN : 26.21 - 48.77M TO BE CONFIRMED,45.23221,-75.808841,91.7,156
181,NOT PRIVATE LAND,W0000201-3,UPPER THAMES RIVER C.A.,OXFORD COUNTY,ZORRA,LOT 2,CON 7,BEDROCK,LIMESTONE,4708603,N/A,N/A,32,15.88,OPEN HOLE: 23.16M-32.00M,43.11404,-80.843862,305.36,201
182,NOT PRIVATE LAND,W0000266-1,QUINTE CONSERVATION,HASTINGS COUNTY,TUDOR AND CASHEL,LOT 18,CON 6,BEDROCK,GREY GRANITE,2919751,N/A,N/A,69.88,15.88,OPEN HOLE: 6.1 - 68.6M,44.71834,-77.587893,300.06,266
183,PRIVATE LAND,W0000267-1,QUINTE CONSERVATION,HASTINGS COUNTY,THURLOW,LOT 11,CON 5,BEDROCK,GREY LIMESTONE,2918843,N/A,N/A,12.2,15.88,OPEN HOLE: 8.26 - 12.2M,0,0,113.34,267
184,NOT PRIVATE LAND,W0000178-1,GRAND RIVER C.A.,HALDIMAND-NORFOLK REGIONAL MUNICIPALITY,CAYUGA,LOT 48,CON 1,BEDROCK,LIMESTONE,4513232,N/A,N/A,25.91,15.88,OPEN HOLE: 6.7M-25.9M,42.94455,-79.946116,216.365,178
185,NOT PRIVATE LAND,W0000338-1,CONSERVATION HALTON,HAMILTON CITY,WEST FLAMBOROUGH,LOT 25,CON 2,OVERBURDEN,N/A,N/A,N/A,6806128,3.14,5.08,SCREEN - DETAILS TO BE DETERMINED LATER,43.29775,-79.914922,148.41,338
186,NOT PRIVATE LAND,W0000264-2,CENTRAL LAKE ONTARIO C.A.,DURHAM REGIONAL MUNICIPALITY,CLARINGTON,LOT 13,CON 9,OVERBURDEN,GRAVEL,1916292,N/A,N/A,9.91,3.18,SCREEN: 7.50 - 9.91M,44.05282,-78.759015,291.66,264
187,NOT PRIVATE LAND,W0000376-1,QUINTE CONSERVATION,PRINCE EDWARD COUNTY,SOUTH MARYSBURGH,LOT 24,CON 1,BEDROCK,BROWN LIMESTONE,5307118,N/A,N/A,15.5,15.88,OPEN HOLE : 6.7 - 15.5M,43.93468,-77.089651,84.77,376
188,NOT PRIVATE LAND,W0000164-2,CREDIT VALLEY CONSERVATION,WELLINGTON COUNTY,ERIN,LOT 23,CON 8,OVERBURDEN,"SILTY SAND, SANDY SILT, SAND",6714839,N/A,N/A,8.08,3.18,SCREEN: 6.4M-7.9M,43.78441,-80.134382,427.76,164
189,NOT PRIVATE LAND,W0000200-1,CATARAQUI REGION C.A.,LEEDS AND GRENVILLE UNITED COUNTIES,ATHENS,LOT 6,CON 10,BEDROCK,SANDY DOLOSTONE,3614104,N/A,N/A,18.3,15,OPEN HOLE : 7.0 - 18.3M,44.66067,-75.934571,127.57,200
190,PRIVATE LAND,W0000229-1,QUINTE CONSERVATION,HASTINGS COUNTY,MADOC,LOT 4,CON 2,BEDROCK,LIMESTONE,2901029,N/A,N/A,30,15.88,OPEN HOLE: 2.7 - 30M,0,0,225.87,229
191,NOT PRIVATE LAND,W0000230-1,NOTTAWASAGA VALLEY C.A.,SIMCOE COUNTY,ESSA,LOT 28,CON 1,OVERBURDEN,"GRAVEL, SAND",5730549,N/A,N/A,57.3,5.72,SCREEN: 56.1M-57.3M,44.30193,-79.90583,200.69,230
192,NOT PRIVATE LAND,W0000231-1,NOTTAWASAGA VALLEY C.A.,SIMCOE COUNTY,TOSORONTIO,LOT 5,CON 6,OVERBURDEN,GRAVEL,5705649,N/A,N/A,46.63,15.88,SCREEN: 39.9M-43.5M,44.16577,-79.90813,223.33,231
193,PRIVATE LAND,W0000172-1,LOWER TRENT REGION C.A.,HASTINGS COUNTY,RAWDON,LOT 15,CON 1,OVERBURDEN,GREY GRAVEL,2906338,N/A,N/A,13.2,15.88,OPEN AT END OF CASING,0,0,126.87,172
194,PRIVATE LAND,W0000173-1,LOWER TRENT REGION C.A.,NORTHUMBERLAND COUNTY,SEYMOUR,LOT 17,CON 7,BEDROCK,LIMESTONE,4501953,N/A,N/A,13.1,15.88,OPEN HOLE: 5.8 - 13.1 M,0,0,167.03,173
195,PRIVATE LAND,W0000174-1,LOWER TRENT REGION C.A.,NORTHUMBERLAND COUNTY,CRAMAHE,LOT 3,CON 3,OVERBURDEN,SAND,4505576,N/A,N/A,15.8,15.24,OPEN AT END OF CASING: 13.7 - 15.8M,0,0,188.47,174
196,NOT PRIVATE LAND,W0000180-1,UPPER THAMES RIVER C.A.,OXFORD COUNTY,ZORRA,LOT 7,CON 16,BEDROCK,LIMESTONE,4708277,N/A,N/A,41.91,15.88,OPEN HOLE: 16.15M-41.91M,43.18462,-80.71099,301.35,180
197,NOT PRIVATE LAND,W0000181-1,LOWER THAMES VALLEY C.A.,CHATHAM-KENT DIVISION,HARWICH,LOT 14,CON 3,INTERFACE,"GRAVEL, SHALE",3304974,N/A,N/A,38.1,10.16,OPEN HOLE: 35.9M-36.4M,42.32005,-81.936571,179.45,181
198,PRIVATE LAND,W0000182-1,LOWER THAMES VALLEY C.A.,CHATHAM-KENT DIVISION,HOWARD,LOT 16,CON 1,OVERBURDEN,"SANDY GRAVEL,",3305424,N/A,N/A,22,16.8,SCREEN: 15.85M-20.4M,0,0,185.56,182
199,NOT PRIVATE LAND,W0000186-1,RAISIN REGION C.A.,"STORMONT, DUNDAS AND GLENGARRY UNITED COUNTIES",ALEXANDRIA,LOT 1,CON 3,BEDROCK,LIMESTONE,1805098,N/A,N/A,36.58,15.88,OPEN HOLE : 12.8-36.58 M,45.30638,-74.638111,82.07,186
200,NOT PRIVATE LAND,W0000188-2,SAUGEEN VALLEY C.A.,BRUCE COUNTY,BRANT,LOT 1,CON 1,BEDROCK,LIMESTONE,1410311,N/A,N/A,19.81,5.08,SCREEN: 16.76M-19.81M,44.12563,-81.2163,305.21,188
201,NOT PRIVATE LAND,W0000188-3,SAUGEEN VALLEY C.A.,BRUCE COUNTY,BRANT,LOT 1,CON 1,BEDROCK,LIMESTONE,1410311,N/A,N/A,78.33,5.08,SCREEN: 75.3M-78.3M,44.12563,-81.2163,305.21,188
202,NOT PRIVATE LAND,W0000189-2,GANARASKA REGION C.A.,VICTORIA COUNTY,CLARINGTON,LOT 28,CON 10,OVERBURDEN,SAND AND GRAVEL,1902683,N/A,N/A,131,16.51,SCREEN: 116.4-117.7M - NEEDS CONFIRMATION (FROM RECORD),44.06647,-78.6543,367.6,189
203,NOT PRIVATE LAND,W0000195-1,OTONABEE REGION C.A.,PETERBOROUGH COUNTY,DUMMER,LOT 18,CON 2,BEDROCK,GREY LIMESTONE,5117680,N/A,N/A,15.3,15.88,OPEN HOLE: 6.1-15.85M,44.46348,-78.12756,221.25,195
204,PRIVATE LAND,W0000197-1,OTONABEE REGION C.A.,PETERBOROUGH COUNTY,SMITH,LOT 24,CON 7,BEDROCK,GREY LIMESTONE,5104019,N/A,N/A,12.12,15.88,OPEN HOLE: 3.7 - 12.12M,0,0,259.09,197
205,PRIVATE LAND,W0000198-1,OTONABEE REGION C.A.,PETERBOROUGH COUNTY,DUMMER,LOT 5,CON 7,BEDROCK,GREY LIMESTONE,5108692,N/A,N/A,45,15.88,OPEN HOLE: 6.7 - 45M,0,0,232.68,198
206,NOT PRIVATE LAND,W0000249-1,LOWER THAMES VALLEY C.A.,CHATHAM-KENT DIVISION,HOWARD,LOT 3,CON 9,OVERBURDEN,"GRAVEL, SAND",3308747,N/A,N/A,35.66,5.72,SCREEN: 31.1M-35.7M,42.4196,-81.930515,200.09,249
207,PRIVATE LAND,W0000252-1,RIDEAU VALLEY C.A.,LANARK COUNTY,SOUTH SHERBROOKE,LOT 19,CON 2,BEDROCK,RED AND BLACK GRANITE,3513962,N/A,N/A,30.89,15.88,OPEN HOLE: 6.7 - 31.3M,0,0,180.7,252
208,NOT PRIVATE LAND,W0000253-1,OTONABEE REGION C.A.,PETERBOROUGH COUNTY,OTONABEE,LOT 10,CON 30,OVERBURDEN,"GRAVEL AND SAND,",N/A,N/A,N/A,9.91,5.08,SCREEN:,44.32123,-78.26295,208.44,253
209,PRIVATE LAND,W0000061-1,TORONTO AND REGION C.A.,YORK REGIONAL MUNICIPALITY,KING,LOT 10,CON 7,OVERBURDEN,GRAVEL,6923544,N/A,N/A,192.63,5.08,SCREEN: 186.7M-189.8M,0,0,266.89,61
210,PRIVATE LAND,W0000062-1,LAKE SIMCOE REGION C.A.,DURHAM REGIONAL MUNICIPALITY,BROCK,LOT 22,CON 9,OVERBURDEN,SILTY SAND,1915184,N/A,N/A,9.6,5,SCREEN: 7.1M-8.7M,0,0,270.13,62
211,PRIVATE LAND,W0000247-1,LOWER THAMES VALLEY C.A.,CHATHAM-KENT DIVISION,CHATHAM,LOT 1,CON 3,BEDROCK,SHALE,3308162,N/A,N/A,25.6,10.16,OPEN HOLE: 21.03M-25.60M,0,0,180.15,247
212,PRIVATE LAND,W0000109-2,ST. CLAIR REGION C.A.,LAMBTON COUNTY,DAWN,LOT 31,CON 4,INTERFACE,"SAND, SILTY CLAY, BEDROCK",N/A,CLAY - 18.75M; SILTY SAND - 18.85M; SHALE - 19.74M,N/A,19.74,5.08,SCREEN: 18.75M-19.36 M,0,0,198.42,109
213,PRIVATE LAND,W0000208-1,GANARASKA REGION C.A.,NORTHUMBERLAND COUNTY,HOPE,LOT 26,CON 3,OVERBURDEN,GRAVELLY BROWN CLAY,1901998,N/A,N/A,6.75,106.68,SCREEN: 3.6 - 6.75M,0,0,150.04,208
214,NOT PRIVATE LAND,W0000218-3,UPPER THAMES RIVER C.A.,PERTH COUNTY,NORTH EASTHOPE,LOT 20,CON 2,OVERBURDEN,SILTY SAND,5005359,N/A,N/A,6.71,5.08,SCREEN: 3.6M-6.7M,43.38006,-80.835181,368.9,218
215,NOT PRIVATE LAND,W0000218-4,UPPER THAMES RIVER C.A.,PERTH COUNTY,NORTH EASTHOPE,LOT 20,CON 2,OVERBURDEN,SAND,5005359,N/A,N/A,24.08,5.08,SCREEN: 21.0M-24.1M,43.38006,-80.835181,368.9,218
216,NOT PRIVATE LAND,W0000223-1,NOTTAWASAGA VALLEY C.A.,SIMCOE COUNTY,VESPRA,LOT 22,CON 7,OVERBURDEN,SAND,N/A,SAND - 53.0M; SILT - 71.6M; SAND - 89.3M,N/A,77.72,5.08,SCREEN: 73.8M-76.8M,44.3832,-79.73099,284.9,223
217,NOT PRIVATE LAND,W0000289-1,NIAGARA PENINSULA C.A.,NIAGARA REGIONAL MUNICIPALITY,HUMBERSTONE,LOT 1,CON 2,BEDROCK,LIMESTONE,N/A,SILTY CLAY - 2.0M; LIMESTONE - 4.9M,N/A,4.5,5.08,SCREEN: 3.4M-4.5M,42.90117,-79.115742,186.34,289
218,NOT PRIVATE LAND,W0000290-1,NIAGARA PENINSULA C.A.,NIAGARA REGIONAL MUNICIPALITY,WILLOUGHBY,LOT 5,CON 5,BEDROCK,SHALE,N/A,SILTY CLAY - 13.7M; TILL - 16.9M; SHALE - 20.1M,N/A,19.69,5.08,SCREEN: 18.6M-19.7M,42.98972,-79.090852,177.7,290
219,NOT PRIVATE LAND,W0000340-1,AUSABLE BAYFIELD C.A.,HURON COUNTY,STEPHEN,LOT 12,CON 18,BEDROCK,LIMESTONE,3007491,N/A,N/A,39.62,15.88,OPEN HOLE: 36.3M-39.6M,43.28863,-81.699998,203.21,340
220,NOT PRIVATE LAND,W0000370-1,UPPER THAMES RIVER C.A.,MIDDLESEX COUNTY,LONDON,LOT 1,CON 5,OVERBURDEN,"SAND, GRAVELLY CLAY",4115430,N/A,N/A,12.8,5.08,SCREEN: 9.75M-12.80M,43.06671,-81.175239,274.63,370
221,NOT PRIVATE LAND,W0000371-2,UPPER THAMES RIVER C.A.,PERTH COUNTY,BLANSHARD,LOT 21,CON 11,OVERBURDEN,SAND,5005547,N/A,N/A,26.52,5.08,SCREEN: 23.5M-26.5M,43.23202,-81.271462,309.84,371
222,NOT PRIVATE LAND,W0000435-1,ST. CLAIR REGION C.A.,LAMBTON COUNTY,BROOKE,LOT 23,CON 6,BEDROCK,BLACK AND GREY SHALE,N/A,13404656 TO BE CONFIRMED,N/A,12.5,10,OPEN HOLE:,42.82654,-81.836042,218.25,435
223,NOT PRIVATE LAND,W0000436-1,ST. CLAIR REGION C.A.,MIDDLESEX COUNTY,CARADOC,LOT 6,CON 8,OVERBURDEN,SAND,4115783,N/A,N/A,10.7,4.78,SCREEN: 7.6M-10.7M,42.91662,-81.629207,230.52,436
224,NOT PRIVATE LAND,W0000225-1,OTONABEE REGION C.A.,PETERBOROUGH COUNTY,SOUTH MONAGHAN,LOT 5,CON 4,BEDROCK,LIMESTONE,5109005,N/A,N/A,22.56,15.88,OPEN HOLE: 12.2 - 22.5,44.17673,-78.34317,191.26,225
225,NOT PRIVATE LAND,W0000260-1,MISSISSIPPI VALLEY C.A.,FRONTENAC COUNTY,CLARENDON AND MILLER,LOT 10,CON 1,OVERBURDEN,GRAVEL,2217743,N/A,N/A,24.9,15.88,OPEN HOLE AT BOTTOM OF CASING = 24.9M,44.9974,-77.08077,296.92,260
226,PRIVATE LAND,W0000240-1,SAUGEEN VALLEY C.A.,BRUCE COUNTY,SAUGEEN,LOT 30,CON LR,OVERBURDEN,SAND,N/A,N/A,N/A,2.5,7.62,CONCRETE TILE,0,0,178.28,240
227,NOT PRIVATE LAND,W0000242-1,SAUGEEN VALLEY C.A.,BRUCE COUNTY,BRUCE,LOT 2,CON 1,BEDROCK,"LIMESTONE, SHALE",1404483,N/A,N/A,77.72,16.51,OPEN HOLE: 39.6M-77.7M,44.27037,-81.536179,240.1,242
228,NOT PRIVATE LAND,W0000243-1,CROWE VALLEY C.A.,NORTHUMBERLAND COUNTY,SEYMOUR,LOT 20,CON 11,BEDROCK,GREY LIMESTONE,4503120,N/A,N/A,14.6,15.88,OPEN HOLE: 4.0 - 14.6M,44.37884,-77.75412,164,243
229,NOT PRIVATE LAND,W0000244-2,NOTTAWASAGA VALLEY C.A.,SIMCOE COUNTY,VESPRA,LOT 13,CON 5,OVERBURDEN,SANDY SILT,N/A,"SAND, GRAVEL - 4.1M; SAND - 16.2M; SILT - 20.3M",N/A,20.27,5.08,SCREEN: 18.3M-19.8M,44.43521,-79.74211,239.9,244
230,NOT PRIVATE LAND,W0000254-1,OTONABEE REGION C.A.,PETERBOROUGH COUNTY,ASPHODEL,LOT 6,CON 2,BEDROCK,INTERBEDDED LIMESTONE AND SHALE,5119203,N/A,N/A,12,8.26,OPEN HOLE: 4.4 - 12 M,44.29853,-78.0453,189.47,254
231,NOT PRIVATE LAND,W0000255-2,OTONABEE REGION C.A.,PETERBOROUGH COUNTY,CAVAN,LOT 18,CON 2,OVERBURDEN,SAND,5119205,N/A,N/A,7.21,5.08,SCREEN: 5.68 - 7.21M,44.12325,-78.38876,195.69,255
232,NOT PRIVATE LAND,W0000255-3,OTONABEE REGION C.A.,PETERBOROUGH COUNTY,CAVAN,LOT 18,CON 2,OVERBURDEN,SAND AND GRAVEL,5119205,N/A,N/A,18.75,5.08,SCREEN: 15.74 - 18.75M,44.12325,-78.38876,195.69,255
233,NOT PRIVATE LAND,W0000271-1,LONG POINT REGION C.A.,MIDDLESEX COUNTY,WOODHOUSE,LOT 21,CON 5,BEDROCK,LIMESTONE,4407915,N/A,N/A,41.15,13.02,OPEN HOLE: 18.0M-41.15M,42.83463,-80.1493,205.12,271
234,NOT PRIVATE LAND,W0000369-2,UPPER THAMES RIVER C.A.,OXFORD COUNTY,ZORRA,LOT 15,CON 4,OVERBURDEN,SILTY SAND,4708743,N/A,N/A,12.8,5.08,SCREEN: 11.0M-12.8M,43.1727,-80.917618,327.7,369
235,NOT PRIVATE LAND,W0000374-1,QUINTE CONSERVATION,PRINCE EDWARD COUNTY,HALLOWELL,LOT 9,CON 1,OVERBURDEN,GRAVEL AND SAND,5307127,N/A,N/A,20.4,7.32,SCREEN: 14.3 - 20.4M,43.97291,-77.185216,96.26,374
236,NOT PRIVATE LAND,W0000477-1,GRAND RIVER C.A.,BRANT COUNTY,BURFORD,LOT 9,CON 5,OVERBURDEN,SAND,7052790,N/A,N/A,38.4,6,SCREEN: 14.9-17.9M,43.11641,-80.476647,261,477
237,NOT PRIVATE LAND,W0000478-1,GRAND RIVER C.A.,OXFORD COUNTY,BLANDFORD-BLENHEIM,LOT 1,CON 7,OVERBURDEN,"SAND, SILT",7052789,N/A,N/A,58.35,6,SCREEN: 14.0-17.0M,43.22497,-80.642101,308.03,478
238,NOT PRIVATE LAND,W0000397-1,MATTAGAMI REGION C.A.,COCHRANE DISTRICT,ROBB,N/A,N/A,OVERBURDEN,COARSE BROWN SAND,1605588,N/A,N/A,17.65,8.26,SCREEN: 13.7 - 16.7M,48.58924,-81.634307,303.8,397
239,NOT PRIVATE LAND,W0000398-1,KETTLE CREEK C.A.,ELGIN COUNTY,YARMOUTH,LOT 9,CON 11,OVERBURDEN,"GRAVEL, SAND",2003792,N/A,N/A,26.52,12.7,SCREEN: 22.7M-25.15M,42.8244,-81.149168,221.58,398
240,NOT PRIVATE LAND,W0000443-1,SEVERN SOUND ENVIRONMENTAL ASSOCIATION,SIMCOE COUNTY,MEDONTE,LOT 12,CON 6,OVERBURDEN,"CLAY, SAND AND GRAVEL",N/A,"BH-11 USED FROM OGS, 2004: SRAVELLY SOIL 4.57; FINE TO MEDIUM TO COARSE SAND 10.82; SILTY SAND 33.83; CLAYEY, SILT AND SAND 59.44; GRAVELLY SAND 72.55; CLAY WITH SAND AND GRAVEL 118.14",N/A,118.14,6.35,SCREEN: 68.5 - 71.63M,44.62038,-79.693349,344.39,443
241,NOT PRIVATE LAND,W0000449-1,SAULT STE. MARIE REGION C.A.,ALGOMA DISTRICT,PRINCE,SEC 30,N/A,OVERBURDEN,SAND AND STONES,1107373,N/A,N/A,13.1,15.88,SCREEN: 10 - 11.3 M,46.54087,-84.583665,303.02,449
242,PRIVATE LAND,W0000272-1,NORTH BAY-MATTAWA C.A.,NIPISSING DISTRICT,FERRIS,LOT 31,CON 14,BEDROCK,GREY GRANITE,4300933,N/A,N/A,25.3,12.95,OPEN HOLE: 1.2  - 25.3M,0,0,201.87,272
243,NOT PRIVATE LAND,W0000274-1,NORTH BAY-MATTAWA C.A.,NIPISSING DISTRICT,WIDDIFIELD,LOT 37,CON 17,OVERBURDEN,SAND,N/A,"MW5-01  - AGRA EARTH & ENVIRONMENTAL GROUP, SEPT 1992",N/A,9.1,5.41,SCREEN: 2 - 5 M,46.28487,-79.431657,201.25,274
244,NOT PRIVATE LAND,W0000280-4,MAITLAND VALLEY C.A.,HURON COUNTY,MORRIS,LOT 26,CON 7,BEDROCK,LIMESTONE,3002706,N/A,N/A,45.72,13.67,SLOTTED PIPE: 44.8M-45.7M,43.72226,-81.292139,349.78,280
245,NOT PRIVATE LAND,W0000281-1,NOTTAWASAGA VALLEY C.A.,SIMCOE COUNTY,TOSORONTIO,LOT 6,CON 6,OVERBURDEN,"SAND, GRAVEL",5737782,N/A,N/A,7.62,5.08,SCREEN: 4.57M-7.62M,44.17542,-79.9079,271.28,281
246,NOT PRIVATE LAND,W0000288-1,NIAGARA PENINSULA C.A.,HAMILTON CITY,GLANFORD,LOT 13,CON 3,BEDROCK,DOLOSTONE,N/A,CLAYEY SILT - 3.8M; SILTY CLAY - 7.5M; SANDY SILT - 8.1M; CLAYEY SILT - 8.7M; DOLOSTONE - 12.3M,N/A,12,5.08,SCREEN: 10.6M-12.1M,43.16778,-79.854784,212.73,288
247,NOT PRIVATE LAND,W0000291-1,NOTTAWASAGA VALLEY C.A.,SIMCOE COUNTY,SUNNIDALE,LOT 12,CON 16,OVERBURDEN,SAND,5737807,N/A,N/A,9.14,5.08,SCREEN: 6.1M-9.1M,44.4999,-79.99338,186.2,291
248,PRIVATE LAND,W0000292-1,NOTTAWASAGA VALLEY C.A.,SIMCOE COUNTY,ESSA,LOT 28,CON 1,OVERBURDEN,"SILTY SAND, SANDY SILT",5737726,N/A,N/A,7.62,5.08,SCREEN: 4.57M-7.62M,0,0,200.69,292
249,NOT PRIVATE LAND,W0000293-2,LAKE SIMCOE REGION C.A.,SIMCOE COUNTY,ORO,LOT 11,CON 8,OVERBURDEN,"SILT, SILTY SAND",5737770,N/A,N/A,17.68,5.08,SCREEN: 13.72M-16.76M,44.52545,-79.572367,322.92,293
250,NOT PRIVATE LAND,W0000342-1,AUSABLE BAYFIELD C.A.,HURON COUNTY,GODERICH,LOT 35,CON 12,BEDROCK,LIMESTONE,3007479,N/A,N/A,33.53,15.88,OPEN HOLE: 30.8M-33.5M,43.60612,-81.592459,257.67,342
251,NOT PRIVATE LAND,W0000343-2,MAITLAND VALLEY C.A.,HURON COUNTY,HOWICK,LOT 22,CON 17,OVERBURDEN,"SAND, GRAVEL",3007485,N/A,N/A,9.14,5.08,SCREEN: 3.96M-9.14M,43.95943,-81.04896,368.51,343
252,NOT PRIVATE LAND,W0000344-1,MAITLAND VALLEY C.A.,HURON COUNTY,GREY,LOT 21,CON 9,BEDROCK,LIMESTONE,3007482,N/A,N/A,29.26,15.88,OPEN HOLE: 20.9M-29.3M,43.71083,-81.158982,352.53,344
253,NOT PRIVATE LAND,W0000441-1,SEVERN SOUND ENVIRONMENTAL ASSOCIATION,SIMCOE COUNTY,SEVERN,LOT 6,CON 8,OVERBURDEN,SAND AND GRAVEL,N/A,"BH-15 USED FROM OGS, 2004: FILL/SOIL 1.83; FINE, MEDIUM TO COARSE SAND 22.86; CLAYEY AND SILTY SAND 35.05; CLAY WITH SAND AND GRAVEL 39.9",N/A,37.81,6.35,SCREEN: 33.00 - 37.81M,44.69302,-79.429169,261.68,441
254,NOT PRIVATE LAND,W0000300-2,SAUGEEN VALLEY C.A.,GREY COUNTY,BENTINCK,LOT 40,CON 3,OVERBURDEN,SANDY SILT,2515580,N/A,N/A,12.19,5.08,SCREEN: 6.1M-12.2M,44.14812,-80.928177,294.64,300
255,NOT PRIVATE LAND,W0000300-3,SAUGEEN VALLEY C.A.,GREY COUNTY,BENTINCK,LOT 40,CON 3,OVERBURDEN,"SAND, GRAVEL",2515580,N/A,N/A,20.42,5.08,SCREEN: 17.37M-20.42M,44.14812,-80.928177,294.64,300
256,NOT PRIVATE LAND,W0000302-2,SAUGEEN VALLEY C.A.,BRUCE COUNTY,HURON,LOT 19,CON 7,OVERBURDEN,CLAY,1410435,N/A,N/A,13.48,5.08,SCREEN: 6.1M-12.2M,44.08145,-81.599805,235.12,302
257,NOT PRIVATE LAND,W0000302-3,SAUGEEN VALLEY C.A.,BRUCE COUNTY,HURON,LOT 19,CON 7,OVERBURDEN,"STONES, SAND",1410435,N/A,N/A,27.74,5.08,SCREEN: 24.69M-27.74M,44.08145,-81.599805,235.12,302
258,NOT PRIVATE LAND,W0000303-2,SAUGEEN VALLEY C.A.,GREY COUNTY,PROTON,LOT 8,CON 9,OVERBURDEN,"TILL, GRAVEL",2515622,N/A,N/A,12.19,5.08,SCREEN: 10.67M-12.19M,44.07858,-80.564809,471.75,303
259,NOT PRIVATE LAND,W0000425-1,GRAND RIVER C.A.,WATERLOO REGIONAL MUNICIPALITY,DUMFRIES,LOT 23,CON 10,OVERBURDEN,"GRAVEL, SILTY SAND, SAND",6509536,N/A,N/A,96.01,5.08,SCREEN: 80.77M-83.82M,43.32655,-80.386575,334.594,425
260,NOT PRIVATE LAND,W0000474-1,LAKEHEAD REGION C.A.,THUNDER BAY DISTRICT,SHUNIAH,SECTION 2,CON 8,OVERBURDEN,BROWN GRAVEL,N/A,N/A,A052228,13.7,15.88,OPEN HOLE: 11.6 - 13.7M,48.55941,-88.827823,190,474
261,NOT PRIVATE LAND,W0000330-1,TORONTO AND REGION C.A.,PEEL REGIONAL MUNICIPALITY,ALBION,LOT 21,CON 1,OVERBURDEN,SILT,4909344,N/A,N/A,28.9,6.05,SCREEN: 21.0M-24.0M,43.87399,-79.86591,298.29,330
262,NOT PRIVATE LAND,W0000331-1,MISSISSIPPI VALLEY C.A.,FRONTENAC COUNTY,OSO,LOT 8,CON 2,BEDROCK,GRANITE,N/A,ADUIT#246384,2206244,73.2,15.88,OPEN HOLE: 7.01 - 73.2M,44.75353,-76.66259,210.15,331
263,NOT PRIVATE LAND,W0000332-1,GANARASKA REGION C.A.,NORTHUMBERLAND COUNTY,HOPE,LOT 12,CON 5,OVERBURDEN,"SILT, SAND AND GRAVEL",4513610,N/A,N/A,27.4,7.62,SCREEN: 23.2 - 26.2M,44.01045,-78.359,159.89,332
264,NOT PRIVATE LAND,W0000335-2,CATFISH CREEK C.A.,ELGIN COUNTY,MALAHIDE,LOT 30,CON 4,OVERBURDEN,"SAND, SILTY CLAY",2006112,N/A,N/A,10.97,5.08,SCREEN: 9.45M-10.97M,42.72698,-80.883936,225.75,335
265,NOT PRIVATE LAND,W0000335-3,CATFISH CREEK C.A.,ELGIN COUNTY,MALAHIDE,LOT 30,CON 4,OVERBURDEN,SILTY SAND,2006112,N/A,N/A,24.38,5.08,SCREEN: 15.7M-18.75M,42.72698,-80.883936,225.75,335
266,NOT PRIVATE LAND,W0000350-3,SOUTH NATION CONSERVATION,"STORMONT, DUNDAS AND GLENGARRY UNITED COUNTIES",ROXBOROUGH,LOT 13,CON 5,BEDROCK,GREY LIMESTONE,5804748,N/A,N/A,27.4,15.88,OPEN HOLE: 18 - 27.4M,45.2273,-74.912131,113.04,350
267,NOT PRIVATE LAND,W0000351-1,GANARASKA REGION C.A.,DURHAM REGIONAL MUNICIPALITY,HOPE,LOT 34,CON 10,OVERBURDEN,BROWN SAND AND GRAVEL,4513609,N/A,N/A,21.3,7.62,SCREEN: 17.4 - 20.4M,44.07445,-78.50302,262.38,351
268,NOT PRIVATE LAND,W0000352-2,CATFISH CREEK C.A.,ELGIN COUNTY,MALAHIDE,LOT 95,TALBOT ROAD NORTH SIDE,OVERBURDEN,"SAND, GRAVEL",2006116,N/A,N/A,12.19,5.08,SCREEN: 5.5M-11.6M,42.77349,-80.922928,235.41,352
269,NOT PRIVATE LAND,W0000352-3,CATFISH CREEK C.A.,ELGIN COUNTY,MALAHIDE,LOT 95,TALBOT ROAD NORTH SIDE,OVERBURDEN,"SAND, GRAVEL",2006116,N/A,N/A,38.1,5.08,SCREEN: 31.1M-37.2M,42.77349,-80.922928,235.41,352
270,NOT PRIVATE LAND,W0000353-1,CATFISH CREEK C.A.,ELGIN COUNTY,MALAHIDE,LOT 95,TALBOT ROAD NORTH SIDE,OVERBURDEN,"SAND, GRAVEL",2006111,N/A,N/A,53.34,15.88,SCREEN: 51.8M-53.3M,42.77354,-80.922941,235.41,353
271,NOT PRIVATE LAND,W0000354-1,AUSABLE BAYFIELD C.A.,HURON COUNTY,HAY,LOT 8,CON 6,OVERBURDEN,"SAND, SILT",3007522,N/A,N/A,9.14,5.08,SCREEN: 3.0M-9.1M,43.38163,-81.56501,246.32,354
272,NOT PRIVATE LAND,W0000363-2,SOUTH NATION CONSERVATION,PRESCOTT AND RUSSELL UNITED COUNTIES,CASSELMAN,LOT 10,CON 6,OVERBURDEN,GREY GRAVEL,5605817,N/A,N/A,4.6,5.08,SCREEN : 3-4.5M,45.3175,-75.093431,60.34,363
273,NOT PRIVATE LAND,W0000363-3,SOUTH NATION CONSERVATION,PRESCOTT AND RUSSELL UNITED COUNTIES,CASSELMAN,LOT 10,CON 6,BEDROCK,GREY LIMESTONE,5605816,N/A,N/A,24.4,15.88,OPEN HOLE: 6.1- 24.4M,45.3175,-75.093405,60.16,363
274,NOT PRIVATE LAND,W0000364-1,SOUTH NATION CONSERVATION,PRESCOTT AND RUSSELL UNITED COUNTIES,NORTH PLANTAGENET,LOT 20,CON 2,BEDROCK,BLUE LIMESTONE WITH SHALE AND GREY LIMESTONE,5201049,& 5200717,N/A,80.47,15.2,OPEN HOLE : 7.3 - 80.47M,45.55893,-75.05935,49.81,364
275,NOT PRIVATE LAND,W0000365-1,CATARAQUI REGION C.A.,LENNOX AND ADDINGTON COUNTY,ERNESTOWN,LOT 19,CON 1,BEDROCK,GREY LIMESTONE,3709714,N/A,N/A,19.8,15.88,OPEN HOLE: 5.8 - 19.8M,44.21505,-76.748917,97.28,365
276,NOT PRIVATE LAND,W0000366-1,TORONTO AND REGION C.A.,PEEL REGIONAL MUNICIPALITY,CHINGUACOUSY,LOT 15,CON 2,OVERBURDEN,SILTY SAND,N/A,FILL - 2.0M; SILTY SAND - 16.8M,N/A,16.8,5.08,SCREEN: 13.8M-16.8M,43.73944,-79.791261,253.82,366
277,NOT PRIVATE LAND,W0000367-1,TORONTO AND REGION C.A.,PEEL REGIONAL MUNICIPALITY,TORONTO GORE,LOT 9,CON 8,OVERBURDEN,SILTY SAND,N/A,FILL - 1.07M; SILTY CLAY TILL - 24.38M; SILTY SAND - 27.13M; SILTY SAND TILL - 30.56M,N/A,30.56,6.98,SCREEN: 26.0M-27.4M,43.76645,-79.700531,190.57,367
278,NOT PRIVATE LAND,W0000402-1,MISSISSIPPI VALLEY C.A.,OTTAWA-CARLETON REGIONAL MUNICIPALITY,WEST CARLETON,LOT 11,CON 7,BEDROCK,"GREY, BLACK, BLUE LIMESTONE",1534291,N/A,N/A,61,15.88,OPEN HOLE: 51.2 - 61 M,45.39306,-76.18884,91.16,402
279,NOT PRIVATE LAND,W0000403-1,SOUTH NATION CONSERVATION,"STORMONT, DUNDAS AND GLENGARRY UNITED COUNTIES",WILLIAMSBURGH,LOT 18,CON 3,BEDROCK,GREY LIMESTONE,1805098,N/A,N/A,36.6,15.88,OPEN HOLE : 14.9 - 36.6 M,44.96407,-75.166437,82.52,403
280,NOT PRIVATE LAND,W0000411-3,LOWER TRENT REGION C.A.,NORTHUMBERLAND COUNTY,HALDIMAND,LOT 19,CON 7,INTERFACE,"SILT, SAND / LIMESTONE",4514022,N/A,N/A,179.8,5.08,SCREEN: 173 - 179M,44.10132,-78.05154,299.36,411
281,PRIVATE LAND,W0000433-1,KAWARTHA REGION C.A.,VICTORIA COUNTY,FENELON,LOT 21,CON 10,OVERBURDEN,"SAND AND GRAVEL,",N/A,N/A,"1903433/6408033,",14.21,6.25,N/A-  TO BE DETERMINED,0,0,252.61,433
282,NOT PRIVATE LAND,W0000442-1,SEVERN SOUND ENVIRONMENTAL ASSOCIATION,SIMCOE COUNTY,MEDONTE,LOT 6,CON 4,OVERBURDEN,MEDIUM TO COARSE LIGHT BROWN TO YELLOW SAND,N/A,N/A,N/A,19.83,6.35,SCREEN: 18.29 - 19.81M,44.58282,-79.694656,256.72,442
283,NOT PRIVATE LAND,W0000487-2,UPPER THAMES RIVER C.A.,MIDDLESEX COUNTY,DORCHESTER,LOT 14,CON B STR,OVERBURDEN,SAND,N/A,N/A,N/A,10.7,5.08,SCREEN:  7.3 M- 8.8M,42.97447,-81.03072,259.38,487
284,NOT PRIVATE LAND,W0000368-1,UPPER THAMES RIVER C.A.,PERTH COUNTY,ELLICE,LOT 9,CON 10,BEDROCK,LIMESTONE,5005556,N/A,N/A,45.72,15.88,OPEN HOLE: 41.45M-45.7M,43.46842,-80.955159,370.04,368
285,NOT PRIVATE LAND,W0000375-1,QUINTE CONSERVATION,PRINCE EDWARD COUNTY,HALLOWELL,LOT 9,CON 1,INTERFACE,GRAVEL / GREY LIMESTONE,5307114,/5307230,N/A,21.4,15.88,OPEN HOLE: 20.7 - 21.4M,43.97291,-77.185216,96.26,375
286,PRIVATE LAND,W0000377-1,SOUTH NATION CONSERVATION,PRESCOTT AND RUSSELL UNITED COUNTIES,ALFRED,LOT 10,CON 2,OVERBURDEN,GREY GRAVEL,5203864,N/A,N/A,137.2,15.88,OPEN AT END OF CASING: 134 - 137.2M,0,0,50.58,377
287,NOT PRIVATE LAND,W0000378-1,SOUTH NATION CONSERVATION,"STORMONT, DUNDAS AND GLENGARRY UNITED COUNTIES",MATILDA,LOT 25,CON 8,BEDROCK,GREY LIMESTONE,1805057,N/A,N/A,24.4,15.88,OPEN HOLE: 13.4 - 24.4M,44.97265,-75.423726,76.39,378
288,PRIVATE LAND,W0000379-1,SOUTH NATION CONSERVATION,"STORMONT, DUNDAS AND GLENGARRY UNITED COUNTIES",WILLIAMSBURGH,LOT 9,CON 7,INTERFACE,GRAVEL / GREY LIMESTONE,1805083,N/A,N/A,8.5,5.08,SCREEN 4.6 - 7.6 M AND OPEN HOLE TO END,0,0,89.93,379
289,NOT PRIVATE LAND,W0000380-1,QUINTE CONSERVATION,HASTINGS COUNTY,SIDNEY,LOT 37,CON 8,OVERBURDEN,"GREY CLAY, SAND AND GRAVEL",2920022,/ 2920023,N/A,41.77,7.62,SCREEN: 35.67 - 41.77M,44.29729,-77.468821,183.34,380
290,NOT PRIVATE LAND,W0000381-1,MAITLAND VALLEY C.A.,PERTH COUNTY,ELMA,LOT 15,CON 8,BEDROCK,LIMESTONE,5005534,N/A,N/A,23.16,15.88,OPEN HOLE: 19.8M-23.2M,43.66665,-81.024175,364.93,381
291,NOT PRIVATE LAND,W0000382-1,TORONTO AND REGION C.A.,YORK REGIONAL MUNICIPALITY,MARKHAM,LOT 9,CON 7,OVERBURDEN,"SAND, SILTY SAND, SANDY SILT",N/A,SANDY TILL - 3.8M; SAND - 20.6M; SANDY SILT TILL - 21.3M,N/A,21.3,5.08,SCREEN: 17.4M-20.4M,43.86537,-79.275343,181.32,382
292,NOT PRIVATE LAND,W0000389-2,KAWARTHA REGION C.A.,VICTORIA COUNTY,MANVERS,LOT 11,CON 3,OVERBURDEN,"SAND AND GRAVEL,",1903856,N/A,N/A,52.96,3.18,SCREEN: 48 ~ 52.9 M,44.10879,-78.63711,351.85,389
293,NOT PRIVATE LAND,W0000389-3,KAWARTHA REGION C.A.,VICTORIA COUNTY,MANVERS,LOT 11,CON 3,OVERBURDEN,N/A,N/A,N/A,902240/6411408,82.6,3.18,N/A-  TO BE DETERMINED,44.10879,-78.63711,351.85,389
294,NOT PRIVATE LAND,W0000412-1,LOWER TRENT REGION C.A.,NORTHUMBERLAND COUNTY,HALDIMAND,LOT 19,CON 7,OVERBURDEN,SANDY SILT TO SILT,4514022,N/A,N/A,16.98,5.08,SCREEN: 13 - 16.9M,44.10132,-78.05154,299.36,412
295,NOT PRIVATE LAND,W0000415-1,SAULT STE. MARIE REGION C.A.,ALGOMA DISTRICT,AWENGE,SEC 6,N/A,OVERBURDEN,SILTY SAND,N/A,"FILL WITH WOOD AND SAND 6.7M , SILTY SAND 8.5M , GREY CLAY 11.58M",N/A,11.6,15,SCREEN : 6.7 - 7.92 M,46.50609,-84.45004,184.54,415
296,NOT PRIVATE LAND,W0000390-1,NORTH BAY-MATTAWA C.A.,NIPISSING DISTRICT,CHISHOLM,LOT 16,CON 13,BEDROCK,RED AND GREY GRANITE,4307351,N/A,N/A,140.82,15.88,OPEN HOLE: 13.1  - 140.82M,46.13343,-79.221385,269.84,390
297,NOT PRIVATE LAND,W0000391-1,NORTH BAY-MATTAWA C.A.,NIPISSING DISTRICT,BONFIELD,LOT 31,CON 2,BEDROCK,RED AND GREY GRANITE,4307437,N/A,N/A,73.8,15.88,OPEN HOLE: 22.9 - 73.8M,46.21572,-79.019569,322.29,391
298,NOT PRIVATE LAND,W0000393-1,GANARASKA REGION C.A.,NORTHUMBERLAND COUNTY,HAMILTON,LOT 8,CON 3,OVERBURDEN,GREY SAND WITH GRAVEL,4513604,N/A,N/A,21.52,7.62,SCREEN: 3.05 - 6.1M,44.02851,-78.14699,152.83,393
299,NOT PRIVATE LAND,W0000394-1,MATTAGAMI REGION C.A.,COCHRANE DISTRICT,SHAW,LOT 10,CON 5,INTERFACE,SAND / BLACK BEDROCK,1605589,N/A,N/A,13.7,8.26,SCREEN 10.7 - 13.7M,48.42939,-81.173803,311.37,394
300,NOT PRIVATE LAND,W0000395-1,MATTAGAMI REGION C.A.,SUDBURY DISTRICT,NOBLE,N/A,N/A,OVERBURDEN,BROWN SAND AND GREY SILT,5908301,N/A,N/A,11.4,8.26,SCREEN: 8.42~11.40M,47.68413,-81.715394,355.64,395
301,NOT PRIVATE LAND,W0000396-1,MATTAGAMI REGION C.A.,COCHRANE DISTRICT,TISDALE,LOT 8,CON 5,OVERBURDEN,SAND,1605591,N/A,N/A,23.8,8.26,SCREEN: 20.4 - 23.4M,48.51633,-81.28667,308.83,396
302,NOT PRIVATE LAND,W0000416-1,SAULT STE. MARIE REGION C.A.,ALGOMA DISTRICT,AWENGE,SEC 6,N/A,OVERBURDEN,SILTY SAND,N/A,"FILL WITH WOOD AND SAND 6.7M , SILTY SAND 8.53M , GREY CLAY 9.45M, SILTY SAND - 11.89M, REDDISH BROWN CLAY - 57.61M, SINE SAND - 59.13M, CLAY AND SAND LAYERS - 65.84M, REDDISH BROWN CLAY - 82.3M, GRAVEL - 84.12M",N/A,84.93,12,SCREEN : 82.9 - 84.12M,46.50609,-84.45004,184.54,416
303,NOT PRIVATE LAND,W0000418-1,SAULT STE. MARIE REGION C.A.,ALGOMA DISTRICT,KORAH,SEC 30,N/A,OVERBURDEN,"CLAY,  STONES AND SAND",1107213,N/A,N/A,33.63,15.88,SCREEN: 32.6 - 33.9M,46.54478,-84.365229,197.26,418
304,NOT PRIVATE LAND,W0000419-1,SAULT STE. MARIE REGION C.A.,ALGOMA DISTRICT,KORAH,SEC 30,N/A,BEDROCK,SANDSTONE,1107210,N/A,N/A,43.21,15.88,OPEN HOLE: 34.7 - 42.7M,46.54478,-84.365229,197.26,419
305,NOT PRIVATE LAND,W0000420-1,SAULT STE. MARIE REGION C.A.,ALGOMA DISTRICT,KORAH,SEC 23,N/A,OVERBURDEN,"SAND, GRAVEL AND STONES",1107206,N/A,N/A,22.9,15.88,SCREEN: 21.6 - 22.9M,46.56441,-84.294064,210.54,420
306,NOT PRIVATE LAND,W0000421-1,GRAND RIVER C.A.,DUFFERIN COUNTY,AMARANTH,LOT 32,CON 10,BEDROCK,DOLOSTONE,N/A,SILT TILL - 4.3M; SILT-CLAY TILL - 5.0M; SILT TILL - 17.1M; DOLOSTONE - 20.1M,N/A,20.12,5.08,SCREEN: 16.5M-19.5M,44.04726,-80.336219,496.03,421
307,NOT PRIVATE LAND,W0000423-1,GRAND RIVER C.A.,WATERLOO REGIONAL MUNICIPALITY,WOOLWICH,LOT 28,N/A,OVERBURDEN,GRAVEL,6509618,N/A,N/A,49.1,6.05,SCREEN: 44.5M-46.0M,43.57312,-80.525765,344.155,423
308,NOT PRIVATE LAND,W0000426-1,GRAND RIVER C.A.,WATERLOO REGIONAL MUNICIPALITY,DUMFRIES,LOT 23,CON 10,OVERBURDEN,SILTY SAND,6509535,N/A,N/A,68.58,2.54,SCREEN: 65.5M-68.58M,43.32657,-80.386554,334.792,426
309,PRIVATE LAND,W0000430-1,GRAND RIVER C.A.,WATERLOO REGIONAL MUNICIPALITY,DUMFRIES,LOT 30,CON 12,OVERBURDEN,"SAND, SILTY SAND",6507681,N/A,N/A,18.29,3.96,SCREEN: 15.24M-18.29M,0,0,302.406,430
310,NOT PRIVATE LAND,W0000431-1,ST. CLAIR REGION C.A.,MIDDLESEX COUNTY,LOBO,LOT 8,CON 9,OVERBURDEN,"SAND, SILT",4107927,N/A,N/A,17.68,15.88,SCREEN: 11.9M-15.5M,43.01969,-81.499703,248.14,431
311,NOT PRIVATE LAND,W0000432-1,KAWARTHA REGION C.A.,VICTORIA COUNTY,LINDSAY,LOT 18,CON 5,BEDROCK,GREY LIMESTONE,6418550,N/A,N/A,11.58,15.88,OPEN HOLE: 9.45 -11.58M,44.34247,-78.73184,255.8,432
312,PRIVATE LAND,W0000160-1,LOWER TRENT REGION C.A.,HASTINGS COUNTY,MURRAY,LOT 14,CON 2,BEDROCK,"LIMESTONE,",N/A,N/A,N/A,8.9,3.81,N/A-  TO BE DETERMINED,0,0,106.3,160
313,NOT PRIVATE LAND,W0000453-1,SEVERN SOUND ENVIRONMENTAL ASSOCIATION,SIMCOE COUNTY,TAY,LOT 6,MILITARY RESERVE,OVERBURDEN,RED SAND AND GRAVEL,5725105,N/A,N/A,64,5.08,SCREEN: 57.9 - 61.5M,44.79679,-79.916927,234.38,453
314,NOT PRIVATE LAND,W0000454-1,NICKEL DISTRICT C.A.,SUDBURY DISTRICT,VALLEY EAST,LOT 2,CON 3,OVERBURDEN,SAND,5908443,N/A,N/A,28.65,10.16,SCREEN: 14.6 - 17.7M,46.65915,-80.961416,298.98,454
315,NOT PRIVATE LAND,W0000455-1,NICKEL DISTRICT C.A.,SUDBURY DISTRICT,SUDBURY,LOT 11,CON 3,BEDROCK,GRANITE,5908444,N/A,N/A,70.1,15.88,OPEN HOLE 11.6-70.1M,46.48844,-80.929992,261.41,455
316,NOT PRIVATE LAND,W0000456-1,NICKEL DISTRICT C.A.,SUDBURY DISTRICT,RAYSIDE-BALFOUR,LOT 7,CON 1,BEDROCK,GRANITE,N/A,N/A,N/A,44.2,15.88,OPEN HOLE: 9.1 - 44.2M,46.5453,-81.134124,269.26,456
317,PRIVATE LAND,W0000111-3,ESSEX REGION C.A.,ESSEX COUNTY,GOSFIELD,LOT 13,CON 2 EASTERN DIVISION,OVERBURDEN,SAND,2105632,N/A,N/A,15.31,5.08,N/A-  TO BE DETERMINED,0,0,213.45,111
318,NOT PRIVATE LAND,W0000461-1,ST. CLAIR REGION C.A.,LAMBTON COUNTY,EUPHEMIA,LOT 19,CON 6,BEDROCK,LIMESTONE,3408710,N/A,N/A,19.81,5.08,SCREEN: 16.76M-19.81M,42.66762,-81.91606,198.31,461
319,NOT PRIVATE LAND,W0000482-1,NICKEL DISTRICT C.A.,SUDBURY DISTRICT,NEELON,LOT 11,CON 2,BEDROCK,GREY BEDROCK (DRILLERS DESCRIPTION),N/A,N/A,N/A,72.9,15.88,OPEN HOLE: 2.5  - 72.9M,46.46962,-80.923373,270.9,482
320,NOT PRIVATE LAND,W0000484-1,KAWARTHA REGION C.A.,DURHAM REGIONAL MUNICIPALITY,CARTWRIGHT,LOT 1,CON 23,N/A,N/A,N/A,N/A,N/A,31.6,10,N/A-  TO BE DETERMINED,44.07906,-78.713526,336.91,484
321,NOT PRIVATE LAND,W0000485-2,KAWARTHA REGION C.A.,DURHAM REGIONAL MUNICIPALITY,CARTWRIGHT,LOT 22,CON 2,N/A,N/A,N/A,N/A,N/A,6.18,10,N/A-  TO BE DETERMINED,44.09125,-78.731319,315.62,485
322,NOT PRIVATE LAND,W0000486-1,NOTTAWASAGA VALLEY C.A.,DUFFERIN COUNTY,AMARANTH,LOT 1,CON 11,OVERBURDEN,"SAND, GRAVEL",N/A,N/A,N/A,21.99,5.08,N/A-  TO BE DETERMINED,43.96656,-80.161336,497.29,486
323,NOT PRIVATE LAND,W0000187-2,RAISIN REGION C.A.,"STORMONT, DUNDAS AND GLENGARRY UNITED COUNTIES",CHARLOTTENBURGH,LOT E,CON 1,OVERBURDEN,GRAVEL,2305278,N/A,N/A,7.6,5.08,OPEN AT END OF CASING,45.11569,-74.515336,47.51,187
324,NOT PRIVATE LAND,W0000457-1,NICKEL DISTRICT C.A.,SUDBURY DISTRICT,WALDEN,LOT 3,CON 6,BEDROCK,GRANITE,N/A,N/A,N/A,69.5,15.88,OPEN HOLE: 11 - 69.5M,46.4425,-81.104735,263.18,457
325,NOT PRIVATE LAND,W0000460-1,ST. CLAIR REGION C.A.,LAMBTON COUNTY,WARWICK,LOT 9,CON 1,OVERBURDEN,SAND,3408741,N/A,N/A,7.01,5.08,SCREEN: 3.96M-7.01M,43.00079,-81.947912,217.31,460
326,NOT PRIVATE LAND,W0000462-1,ST. CLAIR REGION C.A.,CHATHAM-KENT DIVISION,CHATHAM,LOT 12,CON 12,BEDROCK,SHALE,3310178,N/A,N/A,20.73,5.08,SCREEN: 17.37M-20.42M,42.55471,-82.247067,180,462
327,NOT PRIVATE LAND,W0000481-1,UPPER THAMES RIVER C.A.,OXFORD COUNTY,OXFORD (ON THAMES),LOT 9,CON 3W,INTERFACE,N/A,N/A,N/A,N/A,79.7,5.08,N/A-  TO BE DETERMINED,43.05381,-80.794455,331.54,481
328,NOT PRIVATE LAND,W0000024-2,GRAND RIVER C.A.,WELLINGTON COUNTY,PUSLINCH,LOT 15,CON 3,OVERBURDEN,SILT,6711653,N/A,N/A,25.91,3.81,SCREEN: 24.38M-25.9M,43.45143,-80.216248,331.97,24
329,NOT PRIVATE LAND,W0000024-4,GRAND RIVER C.A.,WELLINGTON COUNTY,PUSLINCH,LOT 15,CON 3,BEDROCK,LIMESTONE,6711653,N/A,N/A,39.6,4.78,SCREEN: 38.1M-39.6M,43.45143,-80.216248,332,24
330,NOT PRIVATE LAND,W0000079-1,GREY SAUBLE C.A.,BRUCE COUNTY,AMABEL,LOT 15,CON 14,BEDROCK,DOLOSTONE,N/A,OVERBURDEN - 0.76M; GUELPH DOLOSTONE - 21.79M; ERAMOSA DOLOSTONE - 41.8M,N/A,42.67,10.8,OPEN HOLE: 6.86M-41.8M,44.67023,-81.212399,204.09,79
331,NOT PRIVATE LAND,W0000080-1,NIAGARA PENINSULA C.A.,NIAGARA REGIONAL MUNICIPALITY,CAISTOR,LOT 16,CON 3,BEDROCK,DOLOSTONE,N/A,SILTY CLAY - 12.5M; DOLOSTONE - 14.1M,N/A,14.02,5.08,SLOTTED PIPE: 12.4M-14.1M,43.06916,-79.685392,193.33,80
332,NOT PRIVATE LAND,W0000168-1,CENTRAL LAKE ONTARIO C.A.,DURHAM REGIONAL MUNICIPALITY,CLARINGTON,LOT 18,CON 5,OVERBURDEN,SAND AND GRAVEL,1915928,N/A,N/A,28.6,5.08,SCREEN: 27-28.6M,43.97082,-78.74818,163.78,168
333,NOT PRIVATE LAND,W0000220-2,AUSABLE BAYFIELD C.A.,HURON COUNTY,GODERICH,LOT 56,BAYFIELD CON,OVERBURDEN,GRAVEL,N/A,GRAVEL - 7.32M,N/A,7.32,5.08,SCREEN: 4.88M-6.40M,43.58926,-81.590163,257.24,220
334,NOT PRIVATE LAND,W0000388-1,KAWARTHA REGION C.A.,VICTORIA COUNTY,MANVERS,LOT 11,CON 3,INTERFACE,GREY SAND AND GRAVEL,N/A,"BH-00-1 - GOLDER ASSOCIATES DEC 2000, TECHNICAL APPENDIX GROUNDWATER STUDY COUNTY OF VICTORIA:FINE TO MEDIUM SAND - 15M; SAND WITH GRAVEL - 35M; TILL - 20M; FINE SAND  - 26M; FINE SILTY SAND TILL - 73M;",N/A,171.15,5.08,SCREEN: 112 - 171.15M,44.10879,-78.63711,351.85,388
335,NOT PRIVATE LAND,W0000016-3,LONG POINT REGION C.A.,BRANT COUNTY,BURFORD,LOT 19,CON 13,BEDROCK,LIMESTONE,1300722,N/A,N/A,24.23,3.49,OPEN HOLE: 23.77M-24.23M,43.0057,-80.50891,251.31,16
336,NOT PRIVATE LAND,W0000099-1,ESSEX REGION C.A.,ESSEX COUNTY,COLCHESTER,LOT 14,GORE,BEDROCK,LIMESTONE,2101061,N/A,N/A,39.32,15.24,OPEN HOLE: 37.8M-39.3M,42.03141,-82.901376,192.58,99
337,NOT PRIVATE LAND,W0000106-2,ST. CLAIR REGION C.A.,LAMBTON COUNTY,MOORE,LOT 65,CON 11,INTERFACE,"CLAY TILL, SHALE",N/A,SAND - 3.66M; CLAY TILL - 32.61M; SHALE - 33.7M,N/A,33.71,5.08,SCREEN: 30.5M-33.4M,42.89802,-82.456928,179.7,106
338,NOT PRIVATE LAND,W0000118-2,RAISIN REGION C.A.,"STORMONT, DUNDAS AND GLENGARRY UNITED COUNTIES",CORNWALL,LOT 34,CON 6,BEDROCK,LIMESTONE,5801235,N/A,N/A,22.89,5.08,OPEN HOLE:19.8 ~ 22.8 M,45.05707,-74.894065,93.5,118
339,NOT PRIVATE LAND,W0000295-1,HAMILTON REGION C.A.,HAMILTON CITY,BEVERLY,LOT 30,CON 3,BEDROCK,DOLOSTONE,6813990,N/A,N/A,11,5.08,SCREEN: 8.6M-10.1M,43.29826,-80.074812,247.414,295
340,NOT PRIVATE LAND,W0000259-3,GANARASKA REGION C.A.,NORTHUMBERLAND COUNTY,HOPE,LOT 3,CON 2,OVERBURDEN,"GRAVEL, SAND",4513209,N/A,N/A,21.4,5.08,SCREEN : 18.3 - 21.4M,43.97337,-78.28885,101.55,259
341,NOT PRIVATE LAND,W0000159-3,QUINTE CONSERVATION,PRINCE EDWARD COUNTY,HALLOWELL,LOT 21,CON 1,BEDROCK,GREY AND BROWN LIMESTONE,5307084,N/A,N/A,27.7,15.88,OPEN HOLE: 6.7 - 27.7M,44.00511,-77.124093,109.4,159
342,NOT PRIVATE LAND,W0000345-1,MAITLAND VALLEY C.A.,HURON COUNTY,COLBORNE,LOT 5,CON 8,BEDROCK,LIMESTONE,3007478,N/A,N/A,71.93,15.88,OPEN HOLE: 44.2M-71.93M,43.77853,-81.650625,249.78,345
343,NOT PRIVATE LAND,W0000245-2,NOTTAWASAGA VALLEY C.A.,SIMCOE COUNTY,VESPRA,LOT 13,CON 5,OVERBURDEN,SAND,N/A,"SAND - 19.8M; SAND, GRAVEL - 24.4M; CLAY - 27.4M; SAND 43.6M; CLAY -58.8M; SAND - 76.2M",N/A,76.2,5.08,SCREEN: 61.6M-67.4M,44.43515,-79.74211,240.59,245
344,NOT PRIVATE LAND,W0000358-1,ESSEX REGION C.A.,ESSEX COUNTY,MALDEN,LOT 57,N/A,INTERFACE,"GRAVEL, LIMESTONE",2105704,N/A,N/A,19.2,15.88,OPEN HOLE: 17.68M-19.20M,42.03783,-83.030546,177.85,358
345,NOT PRIVATE LAND,W0000009-1,LONG POINT REGION C.A.,HALDIMAND-NORFOLK REGIONAL MUNICIPALITY,MIDDLETON,LOT 24,CON 4,OVERBURDEN,SAND,4400966,N/A,N/A,10.97,12.38,SCREEN: 9.6M-10.2M,42.79699,-80.591324,234.45,9
346,NOT PRIVATE LAND,W0000031-1,HAMILTON REGION C.A.,WELLINGTON COUNTY,PUSLINCH,LOT 34,GORE,BEDROCK,LIMESTONE,6705976,N/A,N/A,27.43,20.32,OPEN HOLE: 4.57M-27.4M,43.42179,-80.103001,294.891,31
347,PRIVATE LAND,W0000034-1,HAMILTON REGION C.A.,HAMILTON CITY,BEVERLY,LOT 28,CON 5,BEDROCK,LIMESTONE,6813500,N/A,N/A,8.53,10.8,SCREEN: 3.96M-8.5M,0,0,261.878,34
348,NOT PRIVATE LAND,W0000086-1,RIDEAU VALLEY C.A.,OTTAWA-CARLETON REGIONAL MUNICIPALITY,RIDEAU,LOT 21,CON 1,BEDROCK,GREY LIMESTONE,1500325,N/A,N/A,25.9,15.85,OPEN HOLE: 19.5 - 25.9 M,45.24543,-75.701737,86.46,86
349,NOT PRIVATE LAND,W0000133-1,QUINTE CONSERVATION,FRONTENAC COUNTY,PORTLAND,LOT 9,CON 9,BEDROCK,BLACK GRANITE,2206051,N/A,N/A,20.31,15.88,OPEN HOLE: 6.7-20.31M,44.46476,-76.688423,145.26,133
350,PRIVATE LAND,W0000355-1,RIDEAU VALLEY C.A.,LEEDS AND GRENVILLE UNITED COUNTIES,OXFORD (ON RIDEAU),LOT 14,CON 6,BEDROCK,GREY LIMESTONE,2409788,#NAME?,N/A,25.3,16,OPEN HOLE: 7.3 - 25.3M,0,0,100.26,355
351,NOT PRIVATE LAND,W0000466-1,LAKEHEAD REGION C.A.,THUNDER BAY DISTRICT,OLIVER,LOT 19,CON 1,OVERBURDEN,BROWN GRAVEL,6107454,N/A,N/A,12.2,15.88,OPEN HOLE 10.4 - 12.2M,48.40231,-89.611693,273.89,466
352,PRIVATE LAND,W0000359-1,ESSEX REGION C.A.,ESSEX COUNTY,GOSFIELD,LOT 8,CON 2,BEDROCK,LIMESTONE,2105703,N/A,N/A,41.15,15.88,OPEN HOLE: 40.5M-41.1M,0,0,203.27,359
353,NOT PRIVATE LAND,W0000362-2,NIAGARA PENINSULA C.A.,NIAGARA REGIONAL MUNICIPALITY,PELHAM,LOT 1,CON 8,OVERBURDEN,SAND,N/A,FINE SAND - 14.2M,N/A,5.5,5.08,SCREEN: 4.2M-5.5M,43.04708,-79.28719,196.7,362
354,NOT PRIVATE LAND,W0000157-3,RIDEAU VALLEY C.A.,OTTAWA-CARLETON REGIONAL MUNICIPALITY,RIDEAU,LOT 3,CON 1,BEDROCK,LIMESTONE WITH SHALE,1532865,N/A,N/A,30.28,5.08,OPEN HOLE: 28.13-30.99M,45.05505,-75.681498,88.6,157
355,NOT PRIVATE LAND,W0000170-2,LONG POINT REGION C.A.,HALDIMAND-NORFOLK REGIONAL MUNICIPALITY,WINDHAM,LOT 11,CON 12,OVERBURDEN,SAND,4407913,N/A,N/A,7.62,5.08,SCREEN: 6.1M-7.6M,42.86837,-80.393467,238,170
356,NOT PRIVATE LAND,W0000284-1,AUSABLE BAYFIELD C.A.,HURON COUNTY,STEPHEN,LOT 12,ABUTTING NORTH BOUNDARY,OVERBURDEN,"SILT, SAND",3007467,N/A,N/A,7.92,5.08,SCREEN: 4.88M-7.92M,43.35132,-81.559311,243.83,284
357,NOT PRIVATE LAND,W0000177-2,SAUGEEN VALLEY C.A.,GREY COUNTY,SULLIVAN,LOT 22,CON 3,BEDROCK,DOLOSTONE,2504263,N/A,N/A,14.94,6.05,SLOTTED PIPE: 14.02M-14.94M,44.35649,-80.910807,309.15,177
358,NOT PRIVATE LAND,W0000437-1,UPPER THAMES RIVER C.A.,MIDDLESEX COUNTY,LONDON,LOT 2,CON 4,OVERBURDEN,SAND,4113682,N/A,N/A,32.31,20.96,SCREEN: 28.0M-31.1M,43.04843,-81.180786,276.5,437
359,PRIVATE LAND,W0000438-1,LOWER THAMES VALLEY C.A.,CHATHAM-KENT DIVISION,HOWARD,LOT 15,CON 1,OVERBURDEN,"SAND, GRAVEL",3305418,N/A,N/A,19.81,5.08,SCREEN: 15.5M-18.9M,0,0,181.93,438
360,PRIVATE LAND,W0000142-1,QUINTE CONSERVATION,PRINCE EDWARD COUNTY,AMELIASBURGH,LOT 75,CON 3,BEDROCK,GREY LIMESTONE,5302933,N/A,N/A,44,20.96,OPEN HOLE: 3-44M,0,0,110.86,142
361,NOT PRIVATE LAND,W0000162-1,AUSABLE BAYFIELD C.A.,HURON COUNTY,TUCKERSMITH,LOT 12,CON 1,BEDROCK,LIMESTONE,3002593,N/A,N/A,85.04,12.7,OPEN HOLE: 16.2M-85.0M,43.5499,-81.403428,310.98,162
362,NOT PRIVATE LAND,W0000005-1,CONSERVATION HALTON,HAMILTON CITY,EAST FLAMBOROUGH,LOT 9,CON 6,OVERBURDEN,GRAVEL,6812863,N/A,N/A,12.8,14.92,OPEN HOLE AT END OF PIEZOMETER: 12.8M-12.8M,43.36691,-79.955456,263.799,5
363,NOT PRIVATE LAND,W0000115-2,KAWARTHA REGION C.A.,VICTORIA COUNTY,MARIPOSA,LOT 16,CON 14,INTERFACE,GRAVEL / LIMESTONE - TO BE CONFIRMED,N/A,N/A,6417173 /6407109/6414780/6402185,6.36,3.18,N/A-  TO BE DETERMINED,44.39775,-78.90858,279.05,115
364,NOT PRIVATE LAND,W0000119-2,RAISIN REGION C.A.,"STORMONT, DUNDAS AND GLENGARRY UNITED COUNTIES",OSNABRUCK,LOT 27,CON 8,BEDROCK,LIMESTONE,5802659,N/A,N/A,27.92,5.08,OPEN HOLE: 23 ~ 27.9 M,45.08314,-75.096301,95.96,119
365,NOT PRIVATE LAND,W0000152-1,QUINTE CONSERVATION,LENNOX AND ADDINGTON COUNTY,SHEFFIELD,LOT 5,CON 6,BEDROCK,"LIMESTONE, SANDSTONE, GRANITE",3709584,N/A,N/A,24.7,15.88,OPEN HOLE: 6.7 - 24.7M,44.48274,-77.000163,167.13,152
366,NOT PRIVATE LAND,W0000413-1,SAULT STE. MARIE REGION C.A.,ALGOMA DISTRICT,KORAH,SEC 13,N/A,OVERBURDEN,SAND,N/A,"COARSE SAND AND GRAVEL 5.5M, COARSE GRAVEL 8.75M, RED GRANITE  9.14 M.",N/A,9.14,15.88,SCREEN : 7.32- 8.53 M,46.58082,-84.363078,311.83,413
367,NOT PRIVATE LAND,W0000039-1,LAKE SIMCOE REGION C.A.,DURHAM REGIONAL MUNICIPALITY,UXBRIDGE,LOT 15,CON 7,OVERBURDEN,SAND,1915186,N/A,N/A,18.8,5.08,SCREEN: 15.0M-18.0M,44.05791,-79.087002,334.62,39
368,NOT PRIVATE LAND,W0000165-2,CREDIT VALLEY CONSERVATION,PEEL REGIONAL MUNICIPALITY,CALEDON,LOT 1,CON 2,OVERBURDEN,CLAYEY SILT,4909397,N/A,N/A,6.1,3.81,SCREEN: 3.05M-6.1M,43.82235,-79.897755,281.72,165
369,NOT PRIVATE LAND,W0000098-1,GREY SAUBLE C.A.,GREY COUNTY,SYDENHAM,LOT 13,CON 5,BEDROCK,LIMESTONE,N/A,N/A,2514735,13.5,16.21,OPEN HOLE,44.55714,-80.802846,331.03,98
370,NOT PRIVATE LAND,W0000107-1,UPPER THAMES RIVER C.A.,MIDDLESEX COUNTY,DORCHESTER,LOT 15,CON B,OVERBURDEN,N/A,N/A,N/A,"4111349, 4111350",8.86,5.08,N/A-  TO BE DETERMINED,42.97393,-81.034056,258.53,107
371,PRIVATE LAND,W0000030-1,CONSERVATION HALTON,HALTON REGIONAL MUNICIPALITY,TRAFALGAR,LOT 33,CON 1,OVERBURDEN,"GRAVEL, SAND",2808925,N/A,N/A,43.89,5.72,SCREEN: 42.5M-43.28M,0,0,154.161,30
372,NOT PRIVATE LAND,W0000176-1,SAUGEEN VALLEY C.A.,GREY COUNTY,NORMANBY,LOT 3,CON 18,BEDROCK,LIMESTONE,2503862,N/A,N/A,26.82,12.7,OPEN HOLE: 22.6M-26.8M,44.11653,-81.005961,270.04,176
373,PRIVATE LAND,W0000399-1,MISSISSIPPI VALLEY C.A.,LANARK COUNTY,LANARK,LOT 6,CON 2,BEDROCK,WHITE LIMESTONE,N/A,N/A,3507371/3500915/3505882/3504621,20.1,15.88,OPEN HOLE: 1.2 - 20.1 M,0,0,176.35,399
374,PRIVATE LAND,W0000236-1,LOWER THAMES VALLEY C.A.,CHATHAM-KENT DIVISION,TILBURY EAST,LOT 9,CON 15,OVERBURDEN,"GRAVEL, SAND",3304480,N/A,N/A,50.9,10.8,OPEN HOLE: 50.9M-50.9M,0,0,189.81,236
375,NOT PRIVATE LAND,W0000112-1,ESSEX REGION C.A.,ESSEX COUNTY,COLCHESTER,LOT 16,CON 7,INTERFACE,"SILTY TILL, SAND, SILT",N/A,CLAYEY SILT - 10.4M; SILT TILL - 16.7M; SILT - 25.6M; LIMESTONE - 32.8M,N/A,32.77,12.06,SCREEN: 28.2M-30.8 M,42.09245,-82.854494,190,112
376,PRIVATE LAND,W0000356-3,NIAGARA PENINSULA C.A.,NIAGARA REGIONAL MUNICIPALITY,STAMFORD,LOT 17,N/A,OVERBURDEN,"SAND, GRAVEL",6603734,N/A,N/A,42.87,4.78,N/A-  TO BE DETERMINED,0,0,187.34,356
377,NOT PRIVATE LAND,W0000169-1,LONG POINT REGION C.A.,HALDIMAND-NORFOLK REGIONAL MUNICIPALITY,WALSINGHAM,LOT 13,CON 4,OVERBURDEN,SAND,4407897,N/A,N/A,12.5,5.08,SCREEN: 9.45M-12.50M,42.65887,-80.510602,208.23,169
378,NOT PRIVATE LAND,W0000218-5,UPPER THAMES RIVER C.A.,PERTH COUNTY,NORTH EASTHOPE,LOT 20,CON 2,BEDROCK,LIMESTONE,5005360,N/A,N/A,60.96,15.88,OPEN HOLE: 60.05M-60.96M,43.38006,-80.835181,368.9,218
379,NOT PRIVATE LAND,W0000170-3,LONG POINT REGION C.A.,HALDIMAND-NORFOLK REGIONAL MUNICIPALITY,WINDHAM,LOT 11,CON 12,BEDROCK,"LIMESTONE, SHALE",4407912,N/A,N/A,48.46,13.02,OPEN HOLE: 45.1M-48.5M,42.86837,-80.393467,238,170
380,NOT PRIVATE LAND,W0000134-1,QUINTE CONSERVATION,FRONTENAC COUNTY,KENNEBEC,LOT 14,CON 8,BEDROCK,LIMESTONE,2207642,N/A,N/A,27.4,15.88,OPEN HOLE: 7.9-27.4M,44.72063,-76.92799,190.98,134
381,NOT PRIVATE LAND,W0000154-1,QUINTE CONSERVATION,LENNOX AND ADDINGTON COUNTY,RICHMOND,LOT 14,CON 7,BEDROCK,GREY LIMESTONE,3709581,N/A,N/A,9.21,15.88,OPEN HOLE: 6.42~9.82M,44.33867,-77.039212,122.19,154
382,NOT PRIVATE LAND,W0000299-1,SAUGEEN VALLEY C.A.,BRUCE COUNTY,CULROSS,LOT 35,CON 14,OVERBURDEN,GRAVEL,1410429,N/A,N/A,25.91,5.08,SCREEN: 22.9M-25.9M,44.05922,-81.403799,277.59,299
383,NOT PRIVATE LAND,W0000301-1,SAUGEEN VALLEY C.A.,BRUCE COUNTY,ELDERSLIE,LOT 7,CON 8,OVERBURDEN,SAND,1410430,N/A,N/A,57,5.08,SCREEN: 53.34M-53.95M,44.33815,-81.228118,260.24,301
384,NOT PRIVATE LAND,W0000114-4,GANARASKA REGION C.A.,DURHAM REGIONAL MUNICIPALITY,CLARINGTON,LOT 22,CON 5,OVERBURDEN,SAND AND GRAVEL,1900956,N/A,N/A,15.12,3.81,SCREEN: 12.5 - 14M,43.99734,-78.5924,236.74,114
385,PRIVATE LAND,W0000192-1,OTONABEE REGION C.A.,PETERBOROUGH COUNTY,MONAGHAN,LOT 3,CON 1,OVERBURDEN,FINE GRAVEL /  COARSE SAND,4502540,N/A,N/A,37.2,15.88,SCREEN 36.2 - 37.2M,0,0,212.25,192
386,NOT PRIVATE LAND,W0000209-1,GANARASKA REGION C.A.,NORTHUMBERLAND COUNTY,HOPE,LOT 17,CON 8,OVERBURDEN,SAND,1903467,N/A,N/A,79.6,15.88,SCREEN: 35.98 - 37.19M,44.05805,-78.40786,176.75,209
387,PRIVATE LAND,W0000211-1,LOWER THAMES VALLEY C.A.,ESSEX COUNTY,TILBURY WEST,LOT 4,CON 9,BEDROCK,LIMESTONE,2103982,N/A,N/A,30.94,10.16,OPEN HOLE: 30.2M-30.94M,0,0,185.47,211
388,NOT PRIVATE LAND,W0000212-1,LOWER TRENT REGION C.A.,HASTINGS COUNTY,HUNTINGDON,LOT 11,CON 7,BEDROCK,LIMESTONE,2919766,N/A,N/A,15.29,15.88,OPEN HOLE: 13.4 - 15.29M,44.40627,-77.43649,158.83,212
389,NOT PRIVATE LAND,W0000014-1,LONG POINT REGION C.A.,HALDIMAND-NORFOLK REGIONAL MUNICIPALITY,WINDHAM,LOT 8,CON 5,OVERBURDEN,GRAVEL,4403135,N/A,N/A,42.37,17.78,OPEN HOLEAT THE BOTTOM: 37.5M-39.0M,42.95178,-80.402284,245.3,14
390,NOT PRIVATE LAND,W0000010-1,TORONTO AND REGION C.A.,DURHAM REGIONAL MUNICIPALITY,PICKERING,LOT 12,CON 7,OVERBURDEN,SILTY SAND,4605547,N/A,N/A,72.54,4.78,SCREEN: 71.63M-72.54M,43.96002,-79.083897,179.71,10
391,NOT PRIVATE LAND,W0000164-3,CREDIT VALLEY CONSERVATION,WELLINGTON COUNTY,ERIN,LOT 23,CON 8,OVERBURDEN,"SAND, GRAVEL",6714839,N/A,N/A,13.26,5.08,SCREEN: 11.43M-12.95M,43.78441,-80.134382,427.76,164
392,NOT PRIVATE LAND,W0000068-1,GREY SAUBLE C.A.,GREY COUNTY,COLLINGWOOD,LOT 32,CON 9,OVERBURDEN,"SAND, GRAVEL",2502842,N/A,N/A,22.86,5.56,SLOTTED PIPE: 16.76M - 22.86 M,44.55926,-80.44855,188.13,68
393,PRIVATE LAND,W0000137-1,QUINTE CONSERVATION,LENNOX AND ADDINGTON COUNTY,CAMDEN EAST,LOT 18,CON 2,BEDROCK,"BUFF AND GREEN SILTSTONE, LIMESTONE",N/A,N/A,3700212/3702838,31.29,20.96,N/A-  TO BE DETERMINED,0,0,108.61,137
394,PRIVATE LAND,W0000144-1,QUINTE CONSERVATION,PRINCE EDWARD COUNTY,SOPHIASBURGH,LOT 58,CON 2,BEDROCK,GREY LIMESTONE,5303644,N/A,N/A,13.7,15.88,OPEN HOLE: 4.3 - 13.7M,0,0,94.57,144
395,PRIVATE LAND,W0000060-1,TORONTO AND REGION C.A.,YORK REGIONAL MUNICIPALITY,KING,LOT 10,CON 7,OVERBURDEN,GRAVEL,6923544,N/A,N/A,192.63,5.08,SCREEN: 186.7M-189.8M,0,0,266.89,60
396,NOT PRIVATE LAND,W0000063-3,LAKE SIMCOE REGION C.A.,YORK REGIONAL MUNICIPALITY,EAST GWILLIMBURY,LOT 111,CON 1,OVERBURDEN,SAND,6925900,N/A,N/A,21.5,3,SCREEN: 14.5M-15.1M,44.10929,-79.508225,224.53,63
397,PRIVATE LAND,W0000193-1,OTONABEE REGION C.A.,PETERBOROUGH COUNTY,SMITH,LOT 30,CON 17,BEDROCK,GREY LIMESTONE / RED GRANITE,5116850,N/A,N/A,64,15.88,OPEN HOLE : 6.1-64.0M,0,0,284.54,193
398,NOT PRIVATE LAND,W0000221-1,SAUGEEN VALLEY C.A.,BRUCE COUNTY,BRANT,LOT 23,CON 3,BEDROCK,"LIMESTONE, SHALE",1405166,N/A,N/A,28.04,12.7,OPEN HOLE: 6.1M-28.0M,44.10624,-81.151666,288,221
399,NOT PRIVATE LAND,W0000222-1,CATARAQUI REGION C.A.,FRONTENAC COUNTY,BEDFORD,LOT 2,CON 9,BEDROCK,GRANITE,2200184,N/A,N/A,26.37,15.88,OPEN HOLE: 3.0 - 26.37M,44.55202,-76.498354,177.99,222
400,NOT PRIVATE LAND,W0000408-1,LAKE SIMCOE REGION C.A.,SIMCOE COUNTY,MARA,LOT 15,CON C,BEDROCK,LIMESTONE,5727603,N/A,N/A,13.72,15.88,OPEN HOLE: 6.7M-13.7M,44.47687,-79.177427,226.89,408
401,NOT PRIVATE LAND,W0000409-1,KETTLE CREEK C.A.,ELGIN COUNTY,SOUTHWOLD,LOT 36,TALBOT ROAD SOUTH SIDE,OVERBURDEN,"SAND, GRAVEL",2006310,N/A,N/A,55.2,10.48,SCREEN: 51.8M-54.5M,42.78725,-81.267407,220.54,409
402,PRIVATE LAND,W0000064-1,CREDIT VALLEY CONSERVATION,HALTON REGIONAL MUNICIPALITY,ESQUESING,LOT 24,CON 3,BEDROCK,LIMESTONE,2807500,N/A,N/A,36.58,15.88,OPEN HOLE: 6.4M-36.6M,0,0,361.95,64
403,NOT PRIVATE LAND,W0000473-1,LAKEHEAD REGION C.A.,THUNDER BAY DISTRICT,SHUNIAH,SECTION 8,CON 8,BEDROCK,RED MUDSTONE AND SANDSTONE,N/A,N/A,N/A,60.1,15.88,OPEN HOLE: 7.9 - 60.1M,48.63157,-88.764926,329.14,473
404,NOT PRIVATE LAND,W0000019-1,CREDIT VALLEY CONSERVATION,DUFFERIN COUNTY,GARAFRAXA,LOT 1,CON B,OVERBURDEN,"SAND, GRAVEL, CLAY",1705664,N/A,N/A,19.2,5.08,SCREEN: 17.68M-19.20M,43.88992,-80.122857,448.85,19
456,NOT PRIVATE LAND,W0000250-1,LOWER THAMES VALLEY C.A.,CHATHAM-KENT DIVISION,ZONE,LOT 11,CON 9,OVERBURDEN,"SAND, GRAVEL",3300023,N/A,N/A,10.52,15.24,SCREEN: 9.05M-9.66M,42.62692,-81.877585,208.09,250
457,NOT PRIVATE LAND,W0000329-1,TORONTO AND REGION C.A.,PEEL REGIONAL MUNICIPALITY,ALBION,LOT 20,CON 4,OVERBURDEN,SAND,4905007,N/A,N/A,51.82,15.88,SCREEN: 46.9M-50.0M,43.90544,-79.827034,283.05,329
458,NOT PRIVATE LAND,W0000476-1,GRAND RIVER C.A.,WATERLOO REGIONAL MUNICIPALITY,NORTH DUMFRIES,LOT 24,CON 7,OVERBURDEN,"GRAVEL, SAND",7052791,N/A,N/A,69.3,6,SCREEN: 54.0-57.0M,43.29214,-80.38536,307.926,476
459,NOT PRIVATE LAND,W0000467-1,LAKEHEAD REGION C.A.,THUNDER BAY DISTRICT,OLIVER,LOT 7,CON 1,BEDROCK,BLACK SHALE,6107448,N/A,N/A,60.1,15.88,OPEN HOLE: 6.1 - 60.1M,48.41132,-89.496668,284.68,467
460,NOT PRIVATE LAND,W0000479-1,NOTTAWASAGA VALLEY C.A.,SIMCOE COUNTY,ESSA,LOT 29,CON 10,OVERBURDEN,"SAND, SILT",N/A,N/A,N/A,117.2,6.35,SCREEN: 83.52M-90.22M,44.33925,-79.769181,230.01,479
461,NOT PRIVATE LAND,W0000480-1,NOTTAWASAGA VALLEY C.A.,SIMCOE COUNTY,INNISFIL,LOT 1,CON 7,OVERBURDEN,"SAND, GRAVEL",5728376,N/A,N/A,32.61,15.75,SCREEN: 30.18-32.61M,44.2697,-79.720175,291.13,480
462,NOT PRIVATE LAND,W0000101-1,ESSEX REGION C.A.,ESSEX COUNTY,COLCHESTER,LOT 14,GORE,OVERBURDEN,"SAND, GRAVEL",2103851,N/A,N/A,11.28,15.24,SCREEN: 5.85M-9.69M,42.03269,-82.900557,192.45,101
463,PRIVATE LAND,W0000102-1,ESSEX REGION C.A.,ESSEX COUNTY,GOSFIELD,LOT 17,CON 11,INTERFACE,SILT & CLAY,2104435,"DUNDEE FORMATION,",N/A,34.78,11.6,SCREEN,0,0,190,102
464,NOT PRIVATE LAND,W0000023-1,GRAND RIVER C.A.,DUFFERIN COUNTY,AMARANTH,LOT 5,CON 10,BEDROCK,LIMESTONE,1705612,N/A,N/A,29.87,14.4,OPEN HOLE: 26.82M-29.87M,43.90437,-80.302065,477.839,23
465,NOT PRIVATE LAND,W0000357-1,NIAGARA PENINSULA C.A.,NIAGARA REGIONAL MUNICIPALITY,PELHAM,LOT 7,CON 8,OVERBURDEN,SAND,6601550,N/A,N/A,46.02,15.88,SCREEN: 36.6M-44.2M,43.04131,-79.316817,237.3,357
466,NOT PRIVATE LAND,W0000459-1,ST. CLAIR REGION C.A.,MIDDLESEX COUNTY,ADELAIDE,LOT 7,CON 1,BEDROCK,"LIMESTONE, SHALE",4116015,N/A,N/A,41.15,5.08,SCREEN: 38.1M-41.1M,42.94846,-81.743105,233.57,459
467,NOT PRIVATE LAND,W0000097-5,SOUTH NATION CONSERVATION,OTTAWA-CARLETON REGIONAL MUNICIPALITY,OSGOODE,LOT 22,CON 8,BEDROCK,DOLOMITE,N/A,"MW01-1 GOLDER ASSOCIATES, MAY 2002",N/A,28.9,3.18,SCREEN 24.5 - 28.9 M,45.23144,-75.4699,86.21,97
468,NOT PRIVATE LAND,W0000303-3,SAUGEEN VALLEY C.A.,GREY COUNTY,PROTON,LOT 8,CON 9,BEDROCK,LIMESTONE,2515623,N/A,N/A,18.59,15.88,OPEN HOLE: 13.1M-18.6M,44.07858,-80.564821,471.75,303
469,NOT PRIVATE LAND,W0000304-1,SAUGEEN VALLEY C.A.,BRUCE COUNTY,BRANT,LOT 1,CON 1,OVERBURDEN,"SAND, SILT, STONES",1410428,N/A,N/A,17.68,5.08,SCREEN: 14.63M-17.68M,44.12563,-81.216237,305.44,304
470,PRIVATE LAND,W0000251-1,RIDEAU VALLEY C.A.,LANARK COUNTY,MONTAGUE,LOT 16,CON 4,BEDROCK,GREY LIMESTONE,3511112,N/A,N/A,22.9,16,OPEN HOLE: 6.7 - 22.9M,0,0,127.49,251
471,NOT PRIVATE LAND,W0000405-1,UPPER THAMES RIVER C.A.,PERTH COUNTY,BLANSHARD,LOT 10,CON 15,BEDROCK,LIMESTONE,5000191,N/A,N/A,28.28,12.7,OPEN HOLE,43.28485,-81.172364,302.78,405
472,NOT PRIVATE LAND,W0000258-1,CROWE VALLEY C.A.,PETERBOROUGH COUNTY,BELMONT AND METHUEN,LOT 5,CON 6,BEDROCK,LIMESTONE,5110799,N/A,5100296,70,15.88,OPEN HOLE  7.01 - 70.0 M,44.43628,-77.83026,204.74,258
473,NOT PRIVATE LAND,W0000293-3,LAKE SIMCOE REGION C.A.,SIMCOE COUNTY,ORO,LOT 11,CON 8,OVERBURDEN,"SANDY SILT, SAND",5737769,N/A,N/A,25.91,5.08,SCREEN: 22.9M-25.9M,44.52545,-79.572367,322.92,293
474,NOT PRIVATE LAND,W0000294-1,HAMILTON REGION C.A.,HAMILTON CITY,BEVERLY,LOT 30,CON 3,OVERBURDEN,SAND,6813990,N/A,N/A,6.1,5.08,SCREEN: 4.57M-6.1M,43.29826,-80.074812,247.493,294
405,NOT PRIVATE LAND,W0000006-1,TORONTO AND REGION C.A.,YORK REGIONAL MUNICIPALITY,MARKHAM,LOT 34,CON 5,OVERBURDEN,"SAND, SILT, GRAVEL",6910828,N/A,N/A,26.21,4.78,SCREEN: 25.3M-26.2M,43.94283,-79.350086,243.75,6
406,NOT PRIVATE LAND,W0000028-4,CREDIT VALLEY CONSERVATION,HALTON REGIONAL MUNICIPALITY,ESQUESING,LOT 20,CON 7,OVERBURDEN,"GRAVEL, SAND",2808070,N/A,N/A,24.38,5.41,SCREEN: 21.34M-22.86M,43.64408,-79.95276,279.4,28
407,NOT PRIVATE LAND,W0000148-1,QUINTE CONSERVATION,HASTINGS COUNTY,TYENDINAGA,LOT 7,CON 6,BEDROCK,LIMESTONE,2905484,N/A,N/A,21.95,15.88,OPEN HOLE : 10.67 - 21.95M,44.31725,-77.280511,139.2,148
408,NOT PRIVATE LAND,W0000153-1,QUINTE CONSERVATION,FRONTENAC COUNTY,HINCHINBROOKE,LOT 5,CON 8,BEDROCK,GREY AND BLACK GRANITE,2217749,N/A,N/A,63.7,15.88,OPEN HOLE: 6.7 - 63.7M,44.54468,-76.774747,172.7,153
409,NOT PRIVATE LAND,W0000065-4,GRAND RIVER C.A.,BRANT COUNTY,BURFORD,LOT 2,CON 8,OVERBURDEN,GRAVEL,1305684,N/A,N/A,25.3,4.44,SCREEN: 18.29M-21.34M,43.09251,-80.416595,259.11,65
410,NOT PRIVATE LAND,W0000070-1,GREY SAUBLE C.A.,GREY COUNTY,SULLIVAN,LOT 1,CON 10,BEDROCK,LIMESTONE,2504927,N/A,N/A,13.41,25.4,OPEN HOLE: 5.2M - 13.4 M,44.45994,-81.03795,261.88,70
411,PRIVATE LAND,W0000121-1,LOWER TRENT REGION C.A.,HASTINGS COUNTY,RAWDON,LOT 12,CON 12,BEDROCK,GREY LIMESTONE,2907601,N/A,N/A,13,20.96,OPEN HOLE: 3.7 - 13M,0,0,177.46,121
412,PRIVATE LAND,W0000122-1,LOWER TRENT REGION C.A.,NORTHUMBERLAND COUNTY,CRAMAHE,LOT 33,CON 4,OVERBURDEN,SAND AND GRAVEL,4504651,N/A,N/A,27.5,15.88,SCREEN: 25-26M,0,0,187.38,122
413,PRIVATE LAND,W0000123-1,LOWER TRENT REGION C.A.,NORTHUMBERLAND COUNTY,HALDIMAND,LOT 32,CON 9,OVERBURDEN,SAND AND GRAVEL,4505214,N/A,N/A,91,15.88,SCREEN: 89.6- 90.8M,0,0,301.37,123
414,NOT PRIVATE LAND,W0000124-1,CONSERVATION HALTON,HALTON REGIONAL MUNICIPALITY,TRAFALGAR,LOT 15,CON 2,OVERBURDEN,"SAND, SILT",2809621,N/A,N/A,14.94,4.44,SCREEN: 11.8M-14.9M,43.49575,-79.750927,194.416,124
415,NOT PRIVATE LAND,W0000323-3,NOTTAWASAGA VALLEY C.A.,SIMCOE COUNTY,WEST GWILLIMBURY,LOT 7,CON 11,OVERBURDEN,SANDY SILT,5737733,N/A,N/A,32,5.08,SCREEN: 29.0M-32.0M,44.16161,-79.64186,269.45,323
416,PRIVATE LAND,W0000175-2,RIDEAU VALLEY C.A.,OTTAWA-CARLETON REGIONAL MUNICIPALITY,GOULBOURN,LOT 11,CON 9,BEDROCK,SILTY DOLOSTONE,N/A,N/A,1531664/1522105,24.61,3.18,N/A-  TO BE DETERMINED,0,0,139.88,175
417,NOT PRIVATE LAND,W0000177-3,SAUGEEN VALLEY C.A.,GREY COUNTY,SULLIVAN,LOT 22,CON 3,BEDROCK,DOLOSTONE,2504264,N/A,N/A,21.95,6.05,SLOTTED PIPE: 21.03M-21.95M,44.35649,-80.910807,309.15,177
418,NOT PRIVATE LAND,W0000371-3,UPPER THAMES RIVER C.A.,PERTH COUNTY,BLANSHARD,LOT 21,CON 11,BEDROCK,LIMESTONE,5005549,N/A,N/A,83.82,5.08,OPEN HOLE: 36.3M-83.8M,43.23202,-81.271462,309.84,371
419,NOT PRIVATE LAND,W0000261-1,CENTRAL LAKE ONTARIO C.A.,DURHAM REGIONAL MUNICIPALITY,SCUGOG,LOT 3,CON 2,OVERBURDEN,FINE SAND AND SILT,1916296,N/A,N/A,28.9,6.05,SCREEN: 16.76-18.29M,44.03249,-79.039258,320.61,261
420,NOT PRIVATE LAND,W0000264-3,CENTRAL LAKE ONTARIO C.A.,DURHAM REGIONAL MUNICIPALITY,CLARINGTON,LOT 13,CON 9,OVERBURDEN,COBBLES AND GRAVEL,1916292,N/A,N/A,58.96,6.35,SCREEN: 48.8 - 51.8 M,44.05282,-78.759015,291.66,264
421,PRIVATE LAND,W0000237-1,LOWER THAMES VALLEY C.A.,CHATHAM-KENT DIVISION,ROMNEY,LOT 19,CON 2,BEDROCK,SHALE,3304391,N/A,N/A,42.06,10.16,OPEN HOLE: 42.06M-42.06M,0,0,180.92,237
422,NOT PRIVATE LAND,W0000343-3,MAITLAND VALLEY C.A.,HURON COUNTY,HOWICK,LOT 22,CON 17,OVERBURDEN,"SAND, GRAVEL",3007485,N/A,N/A,17.07,5.08,SCREEN: 14.94M-16.76M,43.95943,-81.04896,368.51,343
423,NOT PRIVATE LAND,W0000319-1,MISSISSIPPI VALLEY C.A.,LANARK COUNTY,RAMSAY,LOT 1,CON 8,BEDROCK,GREY BROWN SANDSTONE,3514056,N/A,N/A,16.2,15.88,OPEN HOLE: 7.0 - 16.2,45.15772,-76.13898,132.46,319
424,NOT PRIVATE LAND,W0000336-1,CONSERVATION HALTON,HALTON REGIONAL MUNICIPALITY,NASSAGAWEYA,LOT 1,CON 7,BEDROCK,"LIMESTONE, SHALE",2808643,N/A,N/A,36.58,15.88,OPEN HOLE: 6.1M-36.6M,43.49881,-79.920679,317.15,336
425,PRIVATE LAND,W0000341-1,NIAGARA PENINSULA C.A.,NIAGARA REGIONAL MUNICIPALITY,CLINTON,LOT 3,CON 6,BEDROCK,LIMESTONE,N/A,CLAYEY SILT TILL - 3.71M; LIMESTONE - 6.76M,N/A,6.76,5.08,SCREEN: 4.65M-6.75M,0,0,157.76,341
426,NOT PRIVATE LAND,W0000350-2,SOUTH NATION CONSERVATION,"STORMONT, DUNDAS AND GLENGARRY UNITED COUNTIES",ROXBOROUGH,LOT 13,CON 5,OVERBURDEN,GREY GRAVEL AND SAND,5804749,N/A,N/A,12.2,5.08,SCREEN: 7.6 - 10.6M,45.22729,-74.912182,112.93,350
427,NOT PRIVATE LAND,W0000392-1,NORTH BAY-MATTAWA C.A.,NIPISSING DISTRICT,WIDDIFIELD,LOT 6,CON 1,BEDROCK,"GREY, RED, BROWN GRANITE",4307357,N/A,N/A,85.9,15.88,OPEN HOLE: 10-85.9M,46.36312,-79.319218,287.58,392
428,NOT PRIVATE LAND,W0000417-1,SAULT STE. MARIE REGION C.A.,ALGOMA DISTRICT,KORAH,SEC 7,N/A,OVERBURDEN,"SAND,  STONES AND GRAVEL",1107209,N/A,N/A,9.75,15.88,SCREEN: 8.5 - 9.75M,46.59337,-84.448687,330.05,417
429,NOT PRIVATE LAND,W0000383-1,CATARAQUI REGION C.A.,LENNOX AND ADDINGTON COUNTY,NORTH FREDERICKSBURGH,LOT 18,CON 4,INTERFACE,SHALEY LIMESTONE,3709737,N/A,N/A,18,15.88,OPEN HOLE: 16.2 - 18 M,44.2094,-76.900052,78.28,383
430,NOT PRIVATE LAND,W0000384-1,NIAGARA PENINSULA C.A.,NIAGARA REGIONAL MUNICIPALITY,NIAGARA,LOT 193,N/A,OVERBURDEN,SILTY SAND,3804133,N/A,N/A,9.8,5.08,SCREEN: 8.1M-9.8M,43.24123,-79.136086,80.2,384
431,NOT PRIVATE LAND,W0000447-1,SAULT STE. MARIE REGION C.A.,ALGOMA DISTRICT,"ALGOMA, UNORGANIZED, NORTH PART",SEC 10,N/A,OVERBURDEN,SAND AND STONES,1107379,N/A,N/A,13.1,15.88,SCREEN: 11.9 - 13.1M,46.6716,-84.26956,329.95,447
432,NOT PRIVATE LAND,W0000448-1,SAULT STE. MARIE REGION C.A.,ALGOMA DISTRICT,"ALGOMA, UNORGANIZED, NORTH PART",SEC 32,N/A,OVERBURDEN,SAND AND STONES,1107380,N/A,N/A,7.3,15.88,SCREEN: 5.5 -6.7M,46.61636,-84.303935,311.81,448
433,PRIVATE LAND,W0000444-1,SEVERN SOUND ENVIRONMENTAL ASSOCIATION,SIMCOE COUNTY,MEDONTE,LOT 48,CON 1,OVERBURDEN,GREY TO BROWN GAVELLY SAND WITH BOLDERS,N/A,N/A,N/A,36.58,6.35,SCREEN: 35.05 - 36.58 M,0,0,248.52,444
434,NOT PRIVATE LAND,W0000445-1,LOWER THAMES VALLEY C.A.,ELGIN COUNTY,ALDBOROUGH,LOT 22,CON 14,BEDROCK,SHALE,2000040,N/A,N/A,85.34,12.7,OPEN HOLE: 83.8M-85.3M,42.57041,-81.5281,199.38,445
435,NOT PRIVATE LAND,W0000446-1,GREY SAUBLE C.A.,GREY COUNTY,KEPPEL,LOT 25,CON COLPOY RANGE,BEDROCK,LIMESTONE,2504458,N/A,N/A,26.52,15.8,OPEN HOLE: 1.7M-26.5M,44.78857,-81.014614,269.37,446
436,NOT PRIVATE LAND,W0000055-1,UPPER THAMES RIVER C.A.,OXFORD COUNTY,DEREHAM,LOT 10,CON 5,BEDROCK,LIMESTONE,4706368,N/A,N/A,96.62,20.5,OPEN HOLE: 63.1M-96.6M,42.95561,-80.793323,290.91,55
437,NOT PRIVATE LAND,W0000138-1,GANARASKA REGION C.A.,DURHAM REGIONAL MUNICIPALITY,CLARINGTON,LOT 31,CON 9,INTERFACE,"SILTY,  SANDY  TILL",1901053,N/A,N/A,153.92,10.8,OPEN AT END OF CASING,44.04141,-78.65544,299.6,138
438,PRIVATE LAND,W0000037-1,GRAND RIVER C.A.,WATERLOO REGIONAL MUNICIPALITY,WILMOT,LOT 1,CON 2,OVERBURDEN,SAND,6508879,N/A,N/A,9.14,4.76,SCREEN: 6.1M-9.1M,0,0,364.9,37
439,PRIVATE LAND,W0000038-1,CREDIT VALLEY CONSERVATION,PEEL REGIONAL MUNICIPALITY,CALEDON,LOT 12,CON 2,OVERBURDEN,GRAVELLY SAND,4908734,N/A,N/A,33.53,5.08,SCREEN: 32.0M-33.5M,0,0,406.59,38
440,NOT PRIVATE LAND,W0000054-1,UPPER THAMES RIVER C.A.,PERTH COUNTY,FULLARTON,LOT 29,MITCHELL ROAD EAST SIDE,BEDROCK,LIMESTONE,N/A,N/A,5001520,34.3,10.16,OPEN HOLE,43.32933,-81.182826,330.05,54
441,NOT PRIVATE LAND,W0000224-1,NOTTAWASAGA VALLEY C.A.,SIMCOE COUNTY,TECUMSETH,LOT 5,CON 4,OVERBURDEN,"SAND, GRAVEL",N/A,N/A,"A011238, 5704582, 5704583",88.75,17.4,N/A-  TO BE DETERMINED,44.02196,-79.80898,249.08,224
442,NOT PRIVATE LAND,W0000268-1,SOUTH NATION CONSERVATION,"STORMONT, DUNDAS AND GLENGARRY UNITED COUNTIES",FINCH,LOT 13,CON 5,BEDROCK,GREY LIMESTONE,5804718,N/A,N/A,25.91,15.88,OPEN HOLE: 11.6 - 24.4M,45.17487,-75.10964,73.71,268
443,NOT PRIVATE LAND,W0000372-1,KETTLE CREEK C.A.,MIDDLESEX COUNTY,DORCHESTER,LOT 6,CON 6,OVERBURDEN,"SAND, GRAVEL",4106430,N/A,N/A,41.15,16.51,SCREEN: 40.23M-41.15M,42.91487,-80.954938,280,372
444,NOT PRIVATE LAND,W0000404-1,RAISIN REGION C.A.,PRESCOTT AND RUSSELL UNITED COUNTIES,EAST HAWKESBURY,LOT 6,CON 5,OVERBURDEN,GREY GRAVEL,5203922,N/A,N/A,33.5,5.08,SCREEN: 27.4 - 32.M,45.49082,-74.442305,52.64,404
445,NOT PRIVATE LAND,W0000465-1,LAKEHEAD REGION C.A.,THUNDER BAY DISTRICT,THUNDER BAY,LOT 16,CON A,BEDROCK,BLACK BASALT,6107455,N/A,N/A,24.4,15.88,OPEN HOLE: 6.1 - 24.4M,48.4193,-89.336897,245.41,465
446,NOT PRIVATE LAND,W0000113-1,GANARASKA REGION C.A.,DURHAM REGIONAL MUNICIPALITY,CLARINGTON,LOT 31,CON 9,OVERBURDEN,SILTY TILL,1901052,N/A,N/A,46,15.24,SCREEN: 36 - 40 M,44.0414,-78.6554,299.6,113
447,NOT PRIVATE LAND,W0000114-3,GANARASKA REGION C.A.,DURHAM REGIONAL MUNICIPALITY,CLARINGTON,LOT 22,CON 5,OVERBURDEN,SAND AND GRAVEL,1900957,N/A,N/A,14.3,15.24,SCREEN: 11.3 -14.3 M,43.99734,-78.5924,236.74,114
448,NOT PRIVATE LAND,W0000323-4,NOTTAWASAGA VALLEY C.A.,SIMCOE COUNTY,WEST GWILLIMBURY,LOT 7,CON 11,OVERBURDEN,SANDY SILT,5737735,N/A,N/A,105.16,6.05,SCREEN: 102.1M-105.2M,44.16161,-79.64186,269.45,323
449,NOT PRIVATE LAND,W0000324-2,SAUGEEN VALLEY C.A.,BRUCE COUNTY,GREENOCK,LOT 17,CON 14,OVERBURDEN,"GRAVEL, TILL, SAND",1410432,N/A,N/A,9.45,5.08,SCREEN: 6.1M-9.1M,44.21806,-81.352329,272.06,324
450,NOT PRIVATE LAND,W0000324-3,SAUGEEN VALLEY C.A.,BRUCE COUNTY,GREENOCK,LOT 17,CON 14,OVERBURDEN,"TILL, SAND",1410432,N/A,N/A,21.03,5.08,SCREEN: 17.68M-20.73M,44.21806,-81.352329,272.06,324
451,NOT PRIVATE LAND,W0000316-1,CROWE VALLEY C.A.,HASTINGS COUNTY,LIMERICK,LOT 23,CON 2,BEDROCK,BLACK AND GREEN GRANITE,2919831,N/A,N/A,50.9,10.16,OPEN HOLE: 6.1 - 50.9M,44.83847,-77.67046,315.29,316
452,NOT PRIVATE LAND,W0000232-2,NOTTAWASAGA VALLEY C.A.,SIMCOE COUNTY,SUNNIDALE,LOT 12,CON 16,OVERBURDEN,SAND,5735793,N/A,N/A,83.21,7.62,SCREEN: 32.9M-42.1M,44.49993,-79.99342,186.2,232
453,NOT PRIVATE LAND,W0000171-2,LONG POINT REGION C.A.,HALDIMAND-NORFOLK REGIONAL MUNICIPALITY,CHARLOTTEVILLE,LOT 8,CON 5,OVERBURDEN,SAND,4407892,N/A,N/A,7.62,5.08,SCREEN: 4.57M-7.62M,42.75075,-80.420104,231.53,171
454,NOT PRIVATE LAND,W0000190-1,GREY SAUBLE C.A.,BRUCE COUNTY,ALBEMARLE,LOT 11,CON 7,BEDROCK,"DOLOSTONE, SHALE",1410276,N/A,N/A,45.72,15.88,OPEN HOLE: 6.1M-45.7M,44.86511,-81.171,220.56,190
455,NOT PRIVATE LAND,W0000207-1,GANARASKA REGION C.A.,NORTHUMBERLAND COUNTY,HAMILTON,LOT 30,CON 8,OVERBURDEN,SAND,4513312,N/A,N/A,19,15.9,SCREEN: 17.7 - 19 M,44.08438,-78.2995,198.65,207
475,NOT PRIVATE LAND,W0000298-2,LAKE SIMCOE REGION C.A.,YORK REGIONAL MUNICIPALITY,GEORGINA,LOT 2,CON 3,OVERBURDEN,"SILTY SAND, SAND",6926977,N/A,N/A,7.5,5.08,SCREEN: 4.57M-7.62M,44.26262,-79.336001,228.88,298
476,NOT PRIVATE LAND,W0000362-3,NIAGARA PENINSULA C.A.,NIAGARA REGIONAL MUNICIPALITY,PELHAM,LOT 1,CON 8,OVERBURDEN,SAND,N/A,FINE SAND - 14.2M,N/A,13,5.08,SCREEN: 11.8M-13.0M,43.0471,-79.28719,196.7,362
477,NOT PRIVATE LAND,W0000369-3,UPPER THAMES RIVER C.A.,OXFORD COUNTY,ZORRA,LOT 15,CON 4,BEDROCK,LIMESTONE,4708742,N/A,N/A,50.29,15.88,OPEN HOLE: 46.3M-50.3M,43.1727,-80.917618,327.7,369
478,PRIVATE LAND,W0000406-1,AUSABLE BAYFIELD C.A.,PERTH COUNTY,HIBBERT,LOT 27,CON 13,BEDROCK,LIMESTONE,5005637,N/A,N/A,107.9,15.9,OPEN HOLE: 9.1M-107.9M,0,0,297.77,406
479,NOT PRIVATE LAND,W0000407-1,QUINTE CONSERVATION,HASTINGS COUNTY,TYENDINAGA,LOT 23,CON 1,BEDROCK,GREY LIMESTONE,2920183,N/A,N/A,27.4,15.88,OPEN HOLE: 6 - 27.4M,44.22351,-77.1498,90.46,407
480,PRIVATE LAND,W0000410-1,KETTLE CREEK C.A.,MIDDLESEX COUNTY,DORCHESTER,LOT 6,CON 6,OVERBURDEN,"GRAVEL, SAND",4116275,N/A,N/A,18.29,10.48,SCREEN: 15.24M-16.76M,0,0,271.47,410
481,NOT PRIVATE LAND,W0000411-2,LOWER TRENT REGION C.A.,NORTHUMBERLAND COUNTY,HALDIMAND,LOT 19,CON 7,OVERBURDEN,SAND AND SILT,4514022,N/A,N/A,47.4,5.08,SCREEN: 44.3 - 47.4 M,44.10132,-78.05154,299.36,411
482,NOT PRIVATE LAND,W0000427-1,GRAND RIVER C.A.,WATERLOO REGIONAL MUNICIPALITY,WILMOT,LOT 19,GERMAN BLOCK SBR,OVERBURDEN,"GRAVEL, SAND",6509620,N/A,N/A,65.5,6.05,SCREEN: 22.9M-24.4M,43.3761,-80.670615,338.771,427
492,NOT PRIVATE LAND,W0000495-1,Kawartha Region CA,Peterborough County,Galway-Cavendish and Harvey,PT19,CON 12,Bedrock,GRANITE,A001842,N/A,N/A,25.15,6.3,Open Hole:  6 - 25.15m,44.793466,-78.483155,324.35,495
493,NOT PRIVATE LAND,W0000496-1,Kawartha Region CA,Peterborough County,Galway-Cavendish and Harvey,PT20,CON 16,Bedrock,GRANITE,A001855,N/A,N/A,36.75,6.3,Open Hole:  6 - 36.75m,44.584993,-78.496267,253.35,496
494,NOT PRIVATE LAND,W0000498-1,Credit Valley CA,Peel Regional Municipality,CHINGUACOUSY,LOT 4,CON 5,Overburden,Sand,N/A,N/A,N/A,5.4,5,SCREEN:  1.3 M- 4.3M,43.637916,-79.8128,208.58,498
491,NOT PRIVATE LAND,W0000488-3,Central Lake Ontario CA,Durham Regional Municipality,Whitby,LOT 9,CON 9,OVERBURDEN,SAND,A067440,N/A,N/A,151.8,6.3,SCREEN:  148.71 M- 151.8M,44.037583,-78.91607,309.296,488
1,NOT PRIVATE LAND,W0000310-1,CROWE VALLEY C.A.,HALIBURTON COUNTY,MONMOUTH,LOT 33,CON 16,BEDROCK,N/A,N/A,N/A,2705998/2706174,14,15.88,OPEN HOLE : 10 ~ 14 M  TO BE CONFIRMED,45.03846,-78.2249,381.88,310
2,NOT PRIVATE LAND,W0000314-1,SAUGEEN VALLEY C.A.,GREY COUNTY,SULLIVAN,LOT 23,CON 2,OVERBURDEN,"SAND, GRAVEL",2504256,N/A,N/A,16.15,5.08,SLOTTED PIPE: 15.24M-16.15M,44.3485,-80.892953,353.73,314
3,NOT PRIVATE LAND,W0000317-1,CROWE VALLEY C.A.,NORTHUMBERLAND COUNTY,SEYMOUR,LOT 20,CON 11,BEDROCK,LIMESTONE,4513396,N/A,N/A,16.55,15.88,OPEN HOLE: 8 - 16.5M,44.38165,-77.75155,172.99,317
4,NOT PRIVATE LAND,W0000269-1,SOUTH NATION CONSERVATION,"STORMONT, DUNDAS AND GLENGARRY UNITED COUNTIES",WINCHESTER,LOT 3,CON 2,BEDROCK,GREY LIMESTONE,1805039,N/A,N/A,28.54,15.88,OPEN HOLE: 12.8 - 27.4 M,45.04926,-75.320885,71.979,269
5,NOT PRIVATE LAND,W0000270-1,AUSABLE BAYFIELD C.A.,HURON COUNTY,USBORNE,LOT 30,CON 5,OVERBURDEN,"SAND, GRAVEL",N/A,"CLAYEY SILT - 6.2M; SANDY SILT - 8.5M; SAND, GRAVEL - 15.2M; SANDY SILT - 15.8M",N/A,15.85,5.08,SCREEN: 12.2M-15.2M,43.40433,-81.435114,292.17,270
6,NOT PRIVATE LAND,W0000440-1,SEVERN SOUND ENVIRONMENTAL ASSOCIATION,SIMCOE COUNTY,MEDONTE,LOT 6,CON 8,OVERBURDEN,SAND AND GRAVEL,N/A,N/A,N/A,66.41,6.35,SCREEN: 58 ~ 66.4 M,44.60552,-79.639129,238.26,440
7,NOT PRIVATE LAND,W0000094-1,SOUTH NATION CONSERVATION,"STORMONT, DUNDAS AND GLENGARRY UNITED COUNTIES",WINCHESTER,LOT 14,CON 9,OVERBURDEN,SAND AND  GRAVEL,N/A,"WESA 16 : SAND AND GRAVEL TO 3.7M; SAND TO7.0M; TILL TO 8.2 M, BEDROCK TO 9.1 M",N/A,9.1,4,SCREEN 7.0 - 9.1 M,45.14126,-75.298443,78.08,94
8,NOT PRIVATE LAND,W0000032-1,LAKE SIMCOE REGION C.A.,DURHAM REGIONAL MUNICIPALITY,UXBRIDGE,LOT 14,CON 7,OVERBURDEN,SILTY SAND,1915185,N/A,N/A,35.2,5.08,SCREEN: 32.0M-35.0M,44.05096,-79.092637,349.63,32
9,NOT PRIVATE LAND,W0000058-1,LAKE SIMCOE REGION C.A.,SIMCOE COUNTY,INNISFIL,LOT 27,CON 8,OVERBURDEN,SAND,5722961,N/A,N/A,14.33,13,SCREEN: 11.0M-14.0M,44.31747,-79.537576,224.53,58
10,PRIVATE LAND,W0000059-1,TORONTO AND REGION C.A.,YORK REGIONAL MUNICIPALITY,MARKHAM,LOT 59,CON 1,OVERBURDEN,"SAND, GRAVEL",6925983,N/A,N/A,12.8,15.75,SCREEN: 8.3M-12.8M,0,0,275.36,59
11,NOT PRIVATE LAND,W0000158-1,QUINTE CONSERVATION,PRINCE EDWARD COUNTY,SOPHIASBURGH,LOT 38,CON 1,BEDROCK,GREY LIMESTONE,5307087,N/A,N/A,38.7,15.88,OPEN HOLE: 6.7 - 38.7M,44.09056,-77.210406,104.56,158
12,NOT PRIVATE LAND,W0000307-1,GRAND RIVER C.A.,HAMILTON CITY,BEVERLY,LOT 16,CON 5,BEDROCK,DOLOSTONE,6813813,N/A,N/A,19.81,10.16,OPEN HOLE: 2.9M-19.8M,43.32178,-80.155839,260.982,307
13,NOT PRIVATE LAND,W0000309-2,GRAND RIVER C.A.,WATERLOO REGIONAL MUNICIPALITY,DUMFRIES,LOT 18,CON 10,OVERBURDEN,SAND,6509353,N/A,N/A,36.58,5.08,SCREEN: 32.0M-36.6M,43.33705,-80.366825,333.172,309
14,NOT PRIVATE LAND,W0000309-3,GRAND RIVER C.A.,WATERLOO REGIONAL MUNICIPALITY,DUMFRIES,LOT 18,CON 10,OVERBURDEN,"SILTY SAND, GRAVEL",6509353,N/A,N/A,62.79,6.68,SCREEN: 57.5M-62.0M,43.33707,-80.366838,333.077,309
15,NOT PRIVATE LAND,W0000095-1,SOUTH NATION CONSERVATION,PRESCOTT AND RUSSELL UNITED COUNTIES,CALEDONIA,LOT 21,CON 5,OVERBURDEN,SILTY CLAY,N/A,98-3 -USED FROM SN WELL DRILLED IN 1998 MONITORING THE BOG,N/A,6.82,5.08,SCREEN 2.8 - 5.8 M,45.47523,-74.83873,49.35,95
16,NOT PRIVATE LAND,W0000015-1,LONG POINT REGION C.A.,BRANT COUNTY,BURFORD,LOT 19,CON 13,OVERBURDEN,GRAVEL,1300721,N/A,N/A,9.91,16.83,OPEN HOLE: 9.2M-9.9M,43.00284,-80.50463,251.45,15
17,NOT PRIVATE LAND,W0000013-1,LONG POINT REGION C.A.,HALDIMAND-NORFOLK REGIONAL MUNICIPALITY,WINDHAM,LOT 8,CON 5,OVERBURDEN,"SAND, GRAVEL",4403134,N/A,N/A,6.25,3.49,OPEN HOLE AT BOTTOM: 6.25M-6.25M,42.95178,-80.402284,245.3,13
18,NOT PRIVATE LAND,W0000187-3,RAISIN REGION C.A.,"STORMONT, DUNDAS AND GLENGARRY UNITED COUNTIES",CHARLOTTENBURGH,LOT E,CON 1,BEDROCK,LIMESTONE,2305277,N/A,N/A,24.4,15.88,OPEN HOLE: 11.3 - 24.4M,45.11569,-74.515387,47.54,187
19,NOT PRIVATE LAND,W0000450-1,SAULT STE. MARIE REGION C.A.,ALGOMA DISTRICT,TARENTORUS,RANKIN LOCATION,N/A,OVERBURDEN,SAND,1107359,N/A,N/A,43,15.88,SCREEN: 38.71 - 39.9M,46.53387,-84.239752,190.6,450
20,NOT PRIVATE LAND,W0000044-2,CENTRAL LAKE ONTARIO C.A.,DURHAM REGIONAL MUNICIPALITY,DARLINGTON,LOT 6,CON 4,OVERBURDEN,BROWN SAND,1901485,N/A,N/A,11.3,4,SCREEN: 10.0 - 12.8M,43.96443,-78.682778,154.26,44
21,PRIVATE LAND,W0000145-1,QUINTE CONSERVATION,PRINCE EDWARD COUNTY,SOPHIASBURGH,LOT 61,CON 2,BEDROCK,LIMESTONE,5304825,N/A,N/A,21,20.32,OPEN HOLE: 12.1 - 21.0M,0,0,103.3,145
22,NOT PRIVATE LAND,W0000155-1,QUINTE CONSERVATION,HASTINGS COUNTY,TYENDINAGA,LOT 34,CON 9,BEDROCK,GREY AND GREEN LIMESTONE,2919757,N/A,N/A,43.6,15.88,OPEN HOLE: 6.7 - 43.6M,44.38019,-77.158829,160.51,155
23,NOT PRIVATE LAND,W0000156-2,RIDEAU VALLEY C.A.,OTTAWA-CARLETON REGIONAL MUNICIPALITY,NEPEAN,LOT 12,CON 5,OVERBURDEN,GRAVEL,1532866,N/A,N/A,26.2,5.08,SCREEN 18.3 - 26.21M,45.23221,-75.808841,91.7,156
24,PRIVATE LAND,W0000318-1,MISSISSIPPI VALLEY C.A.,LANARK COUNTY,BECKWITH,LOT 14,CON 9,BEDROCK,"GREY, WHITE AND BROWN SANDSTONE",3514045,N/A,N/A,27.4,15.88,OPEN HOLE: 13.4 - 27.4M,0,0,137.47,318
25,NOT PRIVATE LAND,W0000424-1,GRAND RIVER C.A.,WATERLOO REGIONAL MUNICIPALITY,WELLESLEY,LOT 7,CON 14,INTERFACE,"SILTY-SANDY TILL, DOLOSTONE, GYPSUM",6509622,N/A,N/A,86.9,6.05,SCREEN: 85.4M-86.9M,43.58211,-80.688443,379.124,424
26,NOT PRIVATE LAND,W0000451-1,SAULT STE. MARIE REGION C.A.,ALGOMA DISTRICT,KORAH,SEC 34,N/A,OVERBURDEN,SAND,1107360,N/A,N/A,11.3,15.88,SCREEN: 10.0-11.3M,46.53387,-84.239752,190.6,451
27,NOT PRIVATE LAND,W0000026-1,CREDIT VALLEY CONSERVATION,WELLINGTON COUNTY,ERIN,LOT 16,CON 10,BEDROCK,LIMESTONE,6713771,N/A,N/A,35.96,26.04,OPEN HOLE: 8.4M-36.0M,43.78018,-80.066011,392.96,26
28,NOT PRIVATE LAND,W0000027-1,HAMILTON REGION C.A.,HAMILTON CITY,SALTFLEET,LOT 12,CON 5,BEDROCK,DOLOSTONE,6813467,N/A,N/A,7.01,4,SCREEN: 5.5M-7.0M,43.18943,-79.703229,192.697,27
29,NOT PRIVATE LAND,W0000085-1,RIDEAU VALLEY C.A.,OTTAWA-CARLETON REGIONAL MUNICIPALITY,NEPEAN,LOT 11,CON 2,OVERBURDEN,FINE SAND WITH COBBLES,N/A,"BH 97-2 GOLDER ASSOCIATES, 1997",N/A,16.24,3.81,SCREEN: 12.3 - 16.24 M,45.26264,-75.712529,91.78,85
30,NOT PRIVATE LAND,W0000066-1,GREY SAUBLE C.A.,GREY COUNTY,COLLINGWOOD,LOT 4,CON 6,BEDROCK,LIMESTONE,N/A,N/A,2503905,18.53,10.16,OPEN HOLE,44.41534,-80.369385,495.96,66
31,NOT PRIVATE LAND,W0000069-1,GREY SAUBLE C.A.,GREY COUNTY,KEPPEL,LOT 24,CON 24,BEDROCK,LIMESTONE,N/A,N/A,2508822,11.54,12.7,OPEN HOLE,44.76145,-81.02167,245.8,69
32,NOT PRIVATE LAND,W0000044-3,CENTRAL LAKE ONTARIO C.A.,DURHAM REGIONAL MUNICIPALITY,DARLINGTON,LOT 6,CON 4,OVERBURDEN,TILL,N/A,N/A,1901484/1910451,36.52,3.81,N/A-  TO BE DETERMINED,43.96443,-78.682778,154.26,44
33,NOT PRIVATE LAND,W0000045-1,TORONTO AND REGION C.A.,DURHAM REGIONAL MUNICIPALITY,AJAX,LOT 13,CON 4,OVERBURDEN,SAND AND CLAY,4605087,N/A,N/A,14.95,6,SCREEN: 13.4 - 14.3M,43.89712,-79.063442,122.9,45
483,NOT PRIVATE LAND,W0000428-1,GRAND RIVER C.A.,WATERLOO REGIONAL MUNICIPALITY,WILMOT,LOT 9,CON 2,OVERBURDEN,"GRAVEL, SAND",6509617,N/A,N/A,81.1,7.62,SCREEN: 46.0M-47.5M,43.35747,-80.565339,345.238,428
484,PRIVATE LAND,W0000429-1,GRAND RIVER C.A.,WATERLOO REGIONAL MUNICIPALITY,DUMFRIES,LOT 30,CON 12,OVERBURDEN,SILTY CLAY,6507681,N/A,N/A,42.67,5.08,SCREEN: 39.6M-42.7M,0,0,302.406,429
485,NOT PRIVATE LAND,W0000458-1,RAISIN REGION C.A.,PRESCOTT AND RUSSELL UNITED COUNTIES,HAWKESBURY,LOT 8,BROKEN FRONT,BEDROCK,SHALE,N/A,N/A,N/A,24,15.88,OPEN HOLE:  6 - 24.0M,45.61101,-74.600914,42.9,458
486,NOT PRIVATE LAND,W0000468-1,KETTLE CREEK C.A.,ELGIN COUNTY,YARMOUTH,LOT 9,CON 11,OVERBURDEN,"SAND, GRAVEL",2002476,N/A,N/A,20.73,12.5,SCREEN: 18.9M-20.4M,42.83182,-81.147583,236.7,468
487,NOT PRIVATE LAND,W0000469-1,UPPER THAMES RIVER C.A.,MIDDLESEX COUNTY,WESTMINSTER,LOT 18,CON 2,BEDROCK,LIMESTONE,4116060,N/A,N/A,69.81,5.08,SCREEN: 65.7M-69.1M,42.94347,-81.192099,273.58,469
488,NOT PRIVATE LAND,W0000470-1,UPPER THAMES RIVER C.A.,MIDDLESEX COUNTY,LONDON,LOT 25,CON 1,OVERBURDEN,SAND,N/A,SILT TILL - 5.0M; SAND - 14.0M,N/A,14,5.08,SCREEN: 11.0-14.0M,42.97325,-81.321889,266.96,470
489,NOT PRIVATE LAND,W0000471-1,SAUGEEN VALLEY C.A.,BRUCE COUNTY,SAUGEEN,LOT 30,CON LR,OVERBURDEN,GRAVEL,1411214,N/A,N/A,23.16,5.08,SCREEN: 11.89-17.98M,44.41637,-81.410042,200.14,471
490,NOT PRIVATE LAND,W0000475-1,LAKEHEAD REGION C.A.,THUNDER BAY DISTRICT,DORION,LOT 1,CON 6,OVERBURDEN,RED GRAVEL,N/A,N/A,N/A,22.6,15.88,SCREEN: 21.6 - 22.6M,48.84182,-88.605654,239.47,475
34,NOT PRIVATE LAND,W0000046-1,GRAND RIVER C.A.,WELLINGTON COUNTY,PUSLINCH,LOT 3,CON 10,BEDROCK,LIMESTONE,6713287,N/A,N/A,30.48,15.88,OPEN HOLE: 6.4M-30.5M,43.54642,-80.179245,315.94,46
35,NOT PRIVATE LAND,W0000071-1,LAKE SIMCOE REGION C.A.,YORK REGIONAL MUNICIPALITY,WHITCHURCH,LOT 19,CON 7,OVERBURDEN,SAND,6922751,N/A,N/A,39.62,2.54,SCREEN: 36.6M - 39.6 M,44.02815,-79.319341,331.41,71
36,PRIVATE LAND,W0000089-1,RAISIN REGION C.A.,"STORMONT, DUNDAS AND GLENGARRY UNITED COUNTIES",LANCASTER,LOT 23,CON 1,OVERBURDEN,GRAVEL,2302990,N/A,N/A,13.1,15.88,OPEN AT END OF CASING -12.8 M,0,0,48.07,89
37,NOT PRIVATE LAND,W0000337-1,CONSERVATION HALTON,HAMILTON CITY,EAST FLAMBOROUGH,LOT 10,CON 9,BEDROCK,DOLOSTONE,N/A,"SAND, SILT - 3.2M; DOLOSTONE - 27.6M",N/A,27.6,5.08,SCREEN: 16.76M-22.86M,43.38804,-79.993306,257.852,337
38,PRIVATE LAND,W0000108-1,ST. CLAIR REGION C.A.,LAMBTON COUNTY,SOMBRA,LOT E,CON 5,OVERBURDEN,N/A,N/A,N/A,N/A,50.34,11.4,SLOTTED PIPE: 31.4 - 34.1 M,0,0,175.93,108
39,NOT PRIVATE LAND,W0000203-1,ESSEX REGION C.A.,ESSEX COUNTY,SANDWICH,LOT 303,TALBOT ROAD NORTH SIDE,BEDROCK,LIMESTONE,2105660,N/A,N/A,39.62,15.88,OPEN HOLE: 37.5M-39.6M,42.22748,-82.959755,193.23,203
40,NOT PRIVATE LAND,W0000204-1,ESSEX REGION C.A.,ESSEX COUNTY,PELEE,LOT 64,N/A,BEDROCK,LIMESTONE,2105663,N/A,N/A,28.96,15.88,OPEN HOLE: 24.7M-28.3M,41.77914,-82.670675,175.11,204
41,NOT PRIVATE LAND,W0000163-2,CREDIT VALLEY CONSERVATION,PEEL REGIONAL MUNICIPALITY,CALEDON,LOT 6,CON 6,OVERBURDEN,"SILTY SAND, SANDY SILT",4909396,N/A,N/A,8.14,3.18,SCREEN: 6.4M-7.9M,43.76771,-80.007884,426.84,163
42,NOT PRIVATE LAND,W0000163-3,CREDIT VALLEY CONSERVATION,PEEL REGIONAL MUNICIPALITY,CALEDON,LOT 6,CON 6,OVERBURDEN,GRAVEL,4909396,N/A,N/A,23.16,5.08,SCREEN: 21.64M-23.16M,43.76771,-80.007884,426.84,163
43,NOT PRIVATE LAND,W0000073-1,NIAGARA PENINSULA C.A.,NIAGARA REGIONAL MUNICIPALITY,GRIMSBY,LOT 12,CON 5,BEDROCK,DOLOSTONE,3802296,/3801963,N/A,14.33,15.88,OPEN HOLE: 13.41M-14.33 M,43.16299,-79.590684,191.11,73
44,NOT PRIVATE LAND,W0000077-1,GREY SAUBLE C.A.,GREY COUNTY,EUPHRASIA,LOT 21,CON 6,BEDROCK,LIMESTONE,2507279,N/A,N/A,10.36,15.88,OPEN HOLE: 7.5M-10.36 M,44.46618,-80.590301,433.72,77
